Facility_Name,ODRSF_facility_type,Prov_Terr,Latitude,Longitude
A.C.R. Trail Park,park,ab,52.256321,-113.816851
A.C.T. Aquatics And Recreation Centre Pool,pool,ab,53.5561459,-113.3861247
Abbeydale Community Centre,community centre,ab,51.05961291,-113.9320225
Abbottsfield Recreation Centre,community centre,ab,53.57196201,-113.3903651
Acadia Aquatic & Fitness Centre,gym,ab,50.97347749,-114.0601578
Acadia Athletic Park,athletic park,ab,50.97102549,-114.0629491
Acadia Community Centre,community centre,ab,50.97317046,-114.0651426
Acadia Recreation Complex,arena,ab,50.97304447,-114.0652199
Act Aquatic & Recreation Centre,community centre,ab,53.55970853,-113.394586
Albert Park / Radisson Heights Community Centre,community centre,ab,51.04153137,-113.9927251
Alexander Wilderness Park Lookout,park,ab,49.73449819,-112.8562431
Alexander Wilderness Park Picnic Area,park,ab,49.73805223,-112.8494046
Arbour Lake Community Centre,community centre,ab,51.13309369,-114.202577
Ardrossan Recreation Complex,rink,ab,53.55435568,-113.1458747
Argyll Plaza Arena,arena,ab,53.49999553,-113.4866483
Argyll Velodrome Sports Centre,community centre,ab,53.5029445,-113.4664761
Atb Centre,rink,ab,49.67220605,-112.9120831
Baccarat Casino,casino,ab,53.54430756,-113.4891749
Banff Trail Community Centre,community centre,ab,51.07030324,-114.1089218
Bankview Community Centre,community centre,ab,51.03252313,-114.1014971
Bear Creek Pool,pool,ab,55.17378172,-118.8046583
Beddington Heights Community Centre,community centre,ab,51.13164348,-114.0851725
Bellevue Community League,community centre,ab,53.56247008,-113.4501406
Beltline Aquatic & Fitness Centre,gym,ab,51.04124058,-114.0669581
Beltline Victoria And Connaught Community Centre,community centre,ab,51.03999662,-114.0479577
Bernd Ebel Fitness Area (Kiwanis Park),gym,ab,49.68792322,-112.8405788
Big Marlborough Park,rink,ab,51.05929013,-113.9451671
Bill Hunter Arena,arena,ab,53.52776113,-113.6041324
Bob Bahan Aquatic & Fitness Centre,gym,ab,51.04129815,-113.9639613
Bonnie Doon Leisure Centre,community centre,ab,53.52385752,-113.4544823
Bonnie Doon Leisure Centre Pool,pool,ab,53.52370218,-113.4539391
Borden Park Outdoor Pool,pool,ab,53.5633932,-113.4538757
Borden Park Outdoor Swimming Pool,pool,ab,53.5633721,-113.4549293
Botterill Bottom Park Boat Launch,park,ab,49.68555336,-112.8552633
Botterill Bottom Park Lookout,park,ab,49.67509786,-112.8516614
Bowness / Greenwood / Greenbriar Community Centre,community centre,ab,51.09166254,-114.2008558
Bowness Community Centre,arena,ab,51.09164754,-114.2001453
Bowness Park Lagoon,rink,ab,51.09679204,-114.2147172
Bowness Park Wading Pool,pool,ab,51.09724458,-114.2115822
Bowness Skatepark,skate park,ab,51.09032624,-114.1987641
Bowview Outdoor Pool & Wading Pool,pool,ab,51.05797027,-114.1029698
Braeside Community Centre,community centre,ab,50.95434611,-114.1020364
Brentwood Community Centre,community centre,ab,51.09750325,-114.1378448
Brentwood Elementary School,splash pad,ab,53.51931061,-113.2908992
Brentwood Rink,rink,ab,53.51875579,-113.2878169
Brentwood Sportsplex,arena,ab,51.0975055,-114.1378114
Bridgeland / Riverside Community Centre,community centre,ab,51.05007404,-114.039942
Broadmoor Arena,arena,ab,53.52982495,-113.3082795
Broadmoor Lake Park,splash pad,ab,53.52631615,-113.3067587
Bull Pen Gym,gym,ab,53.54301681,-113.5957159
Bull Trail Park Lookout 1,trail,ab,49.69144639,-112.8719106
Calder Skating Rink,rink,ab,53.58762984,-113.5310903
Calgary Marlborough Community Centre,community centre,ab,51.0582661,-113.9742887
Calgary Trail Medicentre,trail,ab,53.48806175,-113.4971584
Callingwood Arena,arena,ab,53.50560129,-113.628808
Callingwood Recreation Centre,community centre,ab,53.50560129,-113.628808
Cambrian Heights Community Centre,community centre,ab,51.08682876,-114.087382
Canmore Spray Park,splash pad,ab,51.08106867,-114.1093124
Canyon Meadows Aquatic & Fitness Centre,gym,ab,50.94840292,-114.0895158
Canyon Meadows Community Centre,community centre,ab,50.94621373,-114.0788446
Capilano Park Ski Trails,trail,ab,53.505117,-113.465373
Capitol Hill Community Centre,community centre,ab,51.07127566,-114.0964586
Carburn Park,rink,ab,50.97458453,-114.0287657
Carrington Skatepark,skate park,ab,51.18185751,-114.0939976
Casino Edmonton,casino,ab,53.51206277,-113.4346276
Casino Yellowhead,casino,ab,53.57050531,-113.587951
Castle Downs Arena,arena,ab,53.6161845,-113.5217212
Castle Downs Outdoor Ice Rink,rink,ab,53.6150368,-113.5231117
Castle Downs Recreation Centre,community centre,ab,53.6161845,-113.5217212
Cedarbrae Community Centre,community centre,ab,50.95454752,-114.129881
Centennial Park,arena,ab,51.19099389,-114.4617622
Centennial Plaza,arena,ab,51.19002736,-114.4703159
Central Lions Senior Citizens Recreation Centre,community centre,ab,53.55878541,-113.5154268
Central Station Fitness Area,gym,ab,49.68611357,-112.9085205
Century Casino,casino,ab,53.58834547,-113.4327944
Cfb Edtn. Fitness Trail Edtn. Garrison,trail,ab,53.67318559,-113.4917636
Chaparral Residents Association,community centre,ab,50.88636251,-114.0364196
Chinook Lake Outdoor Skating Area,rink,ab,49.73138373,-112.8092605
Chinook Park/Kelvin Grove/Eagle Ridge Community Centre,community centre,ab,50.98759577,-114.0849477
Chinook Tourist Exercise Area,gym,ab,49.66978078,-112.7999152
City Hall Outdoor Ice Rink,rink,ab,53.5454167,-113.4911101
Civic Ice Centre,rink,ab,49.69185598,-112.8329961
Cke Skatepark,skate park,ab,50.98735946,-114.0839145
Clareview Arena,arena,ab,53.60294887,-113.4031623
Clareview Community Recreation Centre,community centre,ab,53.60294887,-113.4031623
Clarke Stadium,stadium,ab,53.55976575,-113.4710891
Cliffe Bungalow/Mission Community Association,community centre,ab,51.03336143,-114.0760846
Clover Bar Ranch Park,splash pad,ab,53.55042736,-113.2868237
Coach Hill/Patterson Heights Community Centre,community centre,ab,51.06138085,-114.1778466
Coca Cola Centre,rink,ab,55.14432002,-118.8108894
Cochrane Arena,arena,ab,51.1987877,-114.4728671
Collingwood Cove Park,rink,ab,53.44640737,-113.0055385
Commonwealth Community Recreation Centre,community centre,ab,53.55864854,-113.4774214
Community League Building,community centre,ab,53.55366635,-113.6933223
Confederation Arena,arena,ab,53.48020939,-113.5208371
Confederation Leisure Centre,community centre,ab,53.48016165,-113.5197721
Confederation Leisure Centre Pool,pool,ab,53.47997635,-113.519991
Confederation Pool,pool,ab,53.47910908,-113.5251022
Cor Van Raay Ymca Pool,pool,ab,49.67104614,-112.9134205
Coronation Arena,arena,ab,53.56146439,-113.5583308
Cottonwood Park Lookout,park,ab,49.63855302,-112.8888805
Crescent Heights Community Centre,community centre,ab,51.06194408,-114.0679851
Crestwood Arena,arena,ab,53.53899634,-113.5760473
Crossroads Community Centre,community centre,ab,51.06516302,-114.01913
Crowchild Twin Arenas,arena,ab,51.11206121,-114.211719
Crowfoot Arena,arena,ab,51.12855089,-114.1950555
Crystal Centre - Revolution Arena,rink,ab,55.16951663,-118.7970793
Curves For Women Stadium,stadium,ab,53.56012243,-113.4704658
Dalhousie Community Centre,community centre,ab,51.11284884,-114.1597161
Dave Barr Arena,rink,ab,55.15333605,-118.7819308
Davidson Creek Park,rink,ab,53.55268565,-113.2589453
Deer Run Community Centre,community centre,ab,50.92175537,-114.0079417
Deer Run Skatepark,skate park,ab,50.92223372,-114.007747
Deville / North Cooking Lake Community Hall,rink,ab,53.46737222,-112.9586011
Don Hartman North East Sportsplex,arena,ab,51.10234241,-113.9335898
Donnan Arena,arena,ab,53.51590098,-113.4682025
Dover Community Centre,community centre,ab,51.02671301,-113.9890902
Downtown Community Arena,arena,ab,53.54747213,-113.4967966
East Calgary Twin Arenas,arena,ab,51.02659496,-113.9644405
Eastglen Leisure Centre,community centre,ab,53.56698671,-113.4452702
Eastglen Leisure Centre Pool,pool,ab,53.56713068,-113.4449269
Eau Claire Plaza Wading Pool & Spray Park,pool,ab,51.05335122,-114.069601
Edgemont Community Centre,community centre,ab,51.12848693,-114.1441715
Education Gymnasium University Of Alberta,gym,ab,53.52482599,-113.5218012
Elbow Park Community Centre,community centre,ab,51.02346188,-114.0821755
Elboya Heights Community Centre,community centre,ab,51.01536526,-114.072752
Elmwood Park Community Rink,rink,ab,53.58102954,-113.4517825
Emerald Hills Regional Park,rink,ab,53.56521591,-113.2857344
Enmax Centre,rink,ab,49.66686378,-112.8055236
Erin Woods Community Centre,community centre,ab,51.02289563,-113.9637375
Ernest Manning Athletic Park,athletic park,ab,51.03642323,-114.1921458
Ernie Starr Arena,arena,ab,51.0413688,-113.9649277
Evergreen Skating Rink,rink,ab,53.62940607,-113.3537697
Fairview Community Centre,community centre,ab,50.98251763,-114.05869
Falconridge/Castleridge Community Centre,community centre,ab,51.10454915,-113.946308
Father David Bauer Arena,arena,ab,51.07377112,-114.1263332
Flames Community Arenas,arena,ab,51.01185691,-114.1163691
Foothills Athletic Park,athletic park,ab,51.07326728,-114.1241706
Forest Heights/ Fonda Community Centre,community centre,ab,51.0492163,-113.963017
Forest Lawn Athletic Park,athletic park,ab,51.04173198,-113.9624607
Forest Lawn Community Centre,community centre,ab,51.0308198,-113.9768196
"Forest Lawn Outdoor Pool, Wading Pool & Spray Park",pool,ab,51.03875457,-113.9763802
Frank Mccool Arena,arena,ab,50.93607035,-114.050157
Frank Mccool Athletic Park,athletic park,ab,50.93647707,-114.051414
Fred Broadstock Outdoor Pool,pool,ab,53.54890962,-113.5930607
Fred Broadstock Swimming Pool,pool,ab,53.54652067,-113.5902359
Fritz Sick Memorial Pool,pool,ab,49.69310113,-112.8318695
G.H. Dawe Community Centre,community centre,ab,52.286803,-113.831394
Gateway Recreation Centre,community centre,ab,53.46837927,-113.4859154
George Blundun Arena,arena,ab,51.03197786,-114.1600449
George S Hughes Arena,arena,ab,53.50825393,-113.502092
Georgetown Park Horseshoe Pits,park,ab,49.74056707,-112.8291329
Glamorgan Community Centre,community centre,ab,51.01736147,-114.145169
Glen Allan Recreation Complex,community centre,ab,53.53063457,-113.2824166
Glenbrook Community Centre,community centre,ab,51.02298572,-114.1520857
Glendale/Glendale Meadows Community Centre,community centre,ab,51.03299809,-114.1498178
Glengarry Arena,arena,ab,53.59484065,-113.4727983
Glengarry Community League & Outdoor Rink,rink,ab,53.59207026,-113.4751565
Glenmore Athletic Park,athletic park,ab,51.00739855,-114.1026772
Gold Bar Park Ski Trails,trail,ab,53.56121,-113.415544
Goldstick Park Ski Trails,trail,ab,53.5424994,-113.4136831
Grand Trunk Arena,arena,ab,53.59039939,-113.5129006
Grand Trunk Fitness And Leisure Centre,community centre,ab,53.59039939,-113.5129006
Grand Trunk Fitness And Leisure Centre Pool,pool,ab,53.58983565,-113.5117831
Grandview Gardens Community Centre,community centre,ab,52.264576,-113.79317
Grandview Heights Community Rink,rink,ab,53.49778392,-113.5440179
Granville Park,splash pad,ab,53.53648678,-113.2768802
Gray Family Eau Claire Ymca,gym,ab,51.0527656,-114.070816
Great Plains Recreation Facility,arena,ab,50.98439782,-113.9478672
Gymniks,gym,ab,55.14374446,-118.8124132
Gyro Spray Ground,splash pad,ab,49.67426659,-112.8730971
Gyro Spray Park (Nicholas Sheran),splash pad,ab,49.67420469,-112.8731592
Hardisty Fitness And Leisure Centre,community centre,ab,53.54914677,-113.4301225
Hardisty Fitness And Leisure Centre Pool,pool,ab,53.5490693,-113.4302907
Hastings Lake Community Hall,rink,ab,53.38156267,-112.9028438
Hawrelak Park Outdoor Ice Rinks,rink,ab,53.527116,-113.5497131
Haysboro Community Centre,community centre,ab,50.97474555,-114.0877857
Henderson Ice Centre,rink,ab,49.69028047,-112.8078036
Henderson Lake Outdoor Skating Area,rink,ab,49.68941862,-112.8002663
Henderson Park - East Picnic Area,park,ab,49.68912035,-112.7912559
Henderson Park Boat Launch,park,ab,49.68951363,-112.7995413
Henderson Pool,pool,ab,49.68831249,-112.8047122
Henry Viney Arena,arena,ab,51.06538171,-114.0453993
Highland Park Community Centre,community centre,ab,51.0853217,-114.0662411
Highlands And District Community League,community centre,ab,53.56786974,-113.4341203
Highwood Community Centre,community centre,ab,51.09081185,-114.0773512
Highwood Outdoor & Wading Pool,pool,ab,51.09214834,-114.0778895
Hillhurst/Sunnyside Community Centre,community centre,ab,51.05754164,-114.0925172
Hillside Park Building And Rink,rink,ab,55.1745917,-118.7790406
Hounsfield Heights/Briar Hill Community Centre,community centre,ab,51.0662269,-114.1041076
Huntington Hills Ca,arena,ab,51.12374937,-114.0723428
Huntington Hills Community Centre,community centre,ab,51.12372676,-114.0722785
Huntington Hills Skatepark,skate park,ab,51.11122962,-114.0652327
Indian Battle Park - North Lookout,park,ab,49.69662022,-112.8588739
Indian Battle Park - South Lookout 1,park,ab,49.69355852,-112.8559187
Indian Battle Park Horseshoe Pits,park,ab,49.6961123,-112.8622898
Indian Battle Park Picnic Area 1,park,ab,49.69451359,-112.8593198
Indian Battle Park Picnic Area 2,park,ab,49.69652749,-112.8626506
Indian Battle Park Picnic Area 3 (Accessible),park,ab,49.6938021,-112.8631229
Indian Battle Park Picnic Area 6,park,ab,49.69105715,-112.8604348
Indian Battle Park Warm-Up Station,gym,ab,49.69155848,-112.8589395
Inglewood Community Centre,community centre,ab,51.03251815,-114.0195175
Jack Setters Arena,arena,ab,50.99175618,-114.0124146
Jackie Parker Park Outdoor Ice Rink,rink,ab,53.4853711,-113.4255648
Jasper Place Fitness And Leisure Centre,community centre,ab,53.52658634,-113.6041951
Jasper Place Fitness And Leisure Centre Pool,pool,ab,53.52657577,-113.6038391
Jimmy Condon Arena,arena,ab,50.98033281,-114.0742334
Ken Bracko Arena,arena,ab,51.04197576,-114.0044087
Kenilworth Arena,arena,ab,53.51939144,-113.4309679
Killarney Aquatic & Recreation Centre,community centre,ab,51.03736368,-114.1302946
Killarney Community League,community centre,ab,53.59051693,-113.4758685
Killarney/Glengarry Community Centre,community centre,ab,51.0287192,-114.1276829
Kinette Active Park (Lakeview Park),gym,ab,49.67813447,-112.7943301
Kinex Arena,arena,ab,52.2623594,-113.8264886
King Edward Park Community League,community centre,ab,53.51648221,-113.4525739
Kingsland Community Centre,community centre,ab,50.98295747,-114.0740173
Kinsmen Arena,arena,ab,53.45091251,-113.5137384
Kinsmen Community Arenas,arena,ab,52.2569634,-113.7866681
Kinsmen Leisure Centre,community centre,ab,53.52578259,-113.3083107
Kinsmen Park Pickle Ball Courts (4),park,ab,49.68652107,-112.8301265
Kinsmen Park Ski Trails,trail,ab,53.5272145,-113.5117593
Kinsmen Sports Centre,community centre,ab,53.52660041,-113.5029907
Kinsmen Sports Centre Pool,pool,ab,53.52634553,-113.5079531
Kinsmen/Westboro Park,splash pad,ab,53.52244307,-113.324084
Kiwanis Park Horseshoe Pits,park,ab,49.68774986,-112.8404002
Labor Club Ice Centre,rink,ab,49.71986962,-112.8132881
Lake Bonavista Community Centre,community centre,ab,50.9369456,-114.0492118
Lake Bonavista Downs Community Centre,community centre,ab,50.94187315,-114.0319163
Lake Bonavista Recreation Centre,arena,ab,50.93689185,-114.0491694
Lakeview Community Centre,community centre,ab,50.99835974,-114.1361774
Legacy Park Challenge Course,trail,ab,49.73777533,-112.8146248
Legacy Park Fitness Area,gym,ab,49.73527892,-112.8193198
Legacy Park Outdoor Skating Area,rink,ab,49.73633082,-112.817615
Legacy Park Skate Plaza,skate park,ab,49.73705269,-112.8149177
Legacy Park Sledding Hill,miscellaneous,ab,49.73544044,-112.8224637
Leisure Centre - Indoor Pool Closed To Public,pool,ab,55.18298203,-118.8094103
Lethbridge Elks Bmx Park,park,ab,49.70994227,-112.8398258
Lethbridge Skate Park,skate park,ab,49.71033937,-112.8391108
Logan Boulet Arena,rink,ab,49.71200792,-112.8220912
Londonderry Arena,arena,ab,53.60766679,-113.4452884
Londonderry Fitness And Leisure Centre,community centre,ab,53.60766223,-113.4435939
Londonderry Fitness And Leisure Centre Pool,pool,ab,53.6075264,-113.4439599
Low Board (Skating),skate park,ab,55.18352704,-118.8044989
Marlborough Park Community Centre,community centre,ab,51.06004504,-113.9424869
Maude Clifford Community Gym,gym,ab,55.19734422,-118.7698876
Max Bell #2,arena,ab,51.04225917,-114.0038894
Max Bell Regional Aquatic Centre,pool,ab,49.67724187,-112.8646443
Mcghan Park,rink,ab,53.54674479,-113.2543124
Mckenzie Lake Community Centre,community centre,ab,50.9062787,-113.983567
Mcleod Community League,community centre,ab,53.60986274,-113.430912
Mcpherson Park,rink,ab,53.51593655,-113.2622739
Meadowlark Park Community Centre,community centre,ab,51.00107649,-114.0778146
Meadows Community Recreation Centre,community centre,ab,53.46352934,-113.3700699
Melcor Ymca At Crowfoot,gym,ab,51.12881042,-114.1957308
Michael Cameron Arena,arena,ab,53.54685656,-113.4242647
Michener Recreation Centre,community centre,ab,52.269162,-113.7801325
Mid-Sun Community Centre,community centre,ab,50.91543769,-114.0566252
Mid-Sun Skatepark,skate park,ab,50.9146002,-114.0566264
Mill Creek Outdoor Pool,pool,ab,53.51756541,-113.4767713
Mill Woods Arena,arena,ab,53.45715935,-113.444516
Mill Woods Recreation Centre,community centre,ab,53.45853321,-113.4443729
Mill Woods Recreation Centre Pool,pool,ab,53.45657286,-113.445136
Millennium Place,community centre,ab,53.55930185,-113.3138738
Millican/Ogden/Lynnwood Community Centre,community centre,ab,50.99147136,-114.0108514
Millican-Ogden Outdoor Pool,pool,ab,50.99123016,-114.0118206
Mills Haven Elementary School,rink,ab,53.53779133,-113.3049739
Mitford Ponds,arena,ab,51.19008387,-114.4940196
Monterey Park Community Centre,community centre,ab,51.07635425,-113.9308847
Montgomery Community Centre,community centre,ab,51.07160849,-114.1656058
Montrose Community League (1992),community centre,ab,53.57303224,-113.4335709
Mother Teresa Community Gym,gym,ab,55.14777971,-118.7570453
Mount Pleasant Outdoor Pool,pool,ab,51.07286446,-114.0755648
Mount Pleasant Sportsplex,arena,ab,51.07341768,-114.0754402
Mount Royal Community Centre,community centre,ab,51.03173477,-114.0860568
Mountain Bike Park,park,ab,49.68911535,-112.8541035
Moyer Recreation Centre,community centre,ab,53.71297372,-113.0701288
Murray Copot Arena,arena,ab,51.11283602,-114.0657163
Ne Community Skatepark,skate park,ab,51.11930484,-113.9481254
New Brighton Athletic Park,athletic park,ab,50.92772606,-113.9506234
New Brighton Skatepark,skate park,ab,50.92835248,-113.9471858
Nicholas Sheran Fitness Area,gym,ab,49.66872193,-112.8818449
Nicholas Sheran Ice Centre,rink,ab,49.67458848,-112.8726226
Nicholas Sheran Lake Outdoor Skating Area,rink,ab,49.67346066,-112.8807639
Nicholas Sheran Leisure Centre,pool,ab,49.6742862,-112.8737765
Nicholas Sheran Park Boat Launch,park,ab,49.66936503,-112.8823588
Norma Bush Arena,arena,ab,51.07342935,-114.1255736
North Glenmore Park Community Centre,community centre,ab,50.99811739,-114.1120604
North Haven Community Centre,community centre,ab,51.09909773,-114.0866232
Northgate Lions Senior Citizens Recreation Centre,community centre,ab,53.6038018,-113.4561259
Oakridge Ca,arena,ab,50.96849603,-114.1317381
Oakridge Community Centre,community centre,ab,50.96876643,-114.1319952
Off-Leash Dog Park,park,ab,55.13983737,-118.7933352
Ogilvie Ridge Community League,community centre,ab,53.4637718,-113.562941
Oldman River (Botterill Bottom Park),park,ab,49.6848465,-112.856334
Oldman River (Pavan Park),park,ab,49.75235868,-112.851357
Oldman River (Popson Park),park,ab,49.64240988,-112.8534978
O'Leary Fitness And Leisure Centre,community centre,ab,53.59280263,-113.4770682
O'Leary Fitness And Leisure Centre Pool,pool,ab,53.59313114,-113.476652
Oliver Arena,arena,ab,53.54595906,-113.5265483
Oliver Swimming Pool,pool,ab,53.54612445,-113.524458
Olympic Plaza,rink,ab,51.04582997,-114.0589351
Optimist Arena,arena,ab,51.0322953,-114.1601252
Optimist Athletic Park,athletic park,ab,51.03328126,-114.1615475
Outdoor Swimming Pool,pool,ab,52.26409575,-113.80661
Palace Casino,casino,ab,53.5207225,-113.6232052
"Palliser, Bayview, Pumphill Community Centre",community centre,ab,50.96863014,-114.1137258
Panther Gym Kickboxing Boxing & Karate Studio,gym,ab,53.54084052,-113.5110457
Parkdale Community Centre,community centre,ab,51.06051475,-114.1368069
Parkhill/Stanley Park Community Centre,community centre,ab,51.01847818,-114.0647616
Parkland Community Centre,community centre,ab,50.918028,-114.0262459
Parkvale Playground,playground,ab,52.264381,-113.802356
Pavan Park Lookout 1,park,ab,49.7557938,-112.832402
Pavan Park Lookout 2,park,ab,49.752282,-112.8335868
Peenaquim Park Dog Run,park,ab,49.72794356,-112.8534769
Penbrooke Meadows Community Centre,community centre,ab,51.04590884,-113.9463297
Peter Hemingway Fitness And Leisure Centre,community centre,ab,53.55965464,-113.5609163
Peter Hemingway Fitness And Leisure Centre Pool,pool,ab,53.55977684,-113.560385
Pineridge Community Centre,community centre,ab,51.07156695,-113.945256
Pop Davies Athletic Park,athletic park,ab,50.9962681,-114.0085739
Popson Park Boat Launch,park,ab,49.64160403,-112.8552343
Popson Park Dog Run,park,ab,49.63941391,-112.8593473
Popson Park Group Picnic Shelter,park,ab,49.63623686,-112.8640936
Prairie Winds Park,rink,ab,51.1046134,-113.9707726
Prairie Winds Park Wading Pool & Spray Park,pool,ab,51.10377504,-113.9711474
Prince's Island Lagoon,rink,ab,51.0543885,-114.0715325
Public Outdoor Rink,rink,ab,55.18304213,-118.8022534
Public Playground,playground,ab,55.14708752,-118.8149467
Queen Elizabeth Outdoor Pool,pool,ab,53.52721261,-113.507153
Queen Elizabeth Swimming Pool,pool,ab,53.52626052,-113.5033717
Queen Mary Park Community League,community centre,ab,53.55432157,-113.5238719
R W Tegler Youth & Sports Centre,community centre,ab,53.57043139,-113.4004412
Rainbow Park,rink,ab,53.51636898,-113.2795817
Ramsay Community Centre,community centre,ab,51.03842577,-114.041143
Ranchlands Community Centre,community centre,ab,51.11959515,-114.1795107
Ravine Park (Sugar Bowl) Fitness Circuit,gym,ab,49.67308287,-112.8139011
Recreation Centre,community centre,ab,52.26409575,-113.80661
Recreation Centre Arena Shell,arena,ab,53.52698549,-113.3063594
Redwood Park Horseshoe Pits,park,ab,49.67393823,-112.7908371
Remington Ymca In Quarry Park,gym,ab,50.96174718,-114.0060918
Renfrew Aquatic & Recreation Centre,community centre,ab,51.0645569,-114.0454726
Renfrew Athletic Park,athletic park,ab,51.06558908,-114.0439183
Renfrew Community Association,community centre,ab,51.06018402,-114.0447379
Richmond/Knob Hill Community Centre,community centre,ab,51.02992082,-114.1170348
Riley Park Wading Pool,pool,ab,51.05885461,-114.0891736
Riverbend Community Centre,community centre,ab,50.97245358,-114.0163854
Riverstone Dog Park,park,ab,49.65472177,-112.8666105
Rocky Ridge Skatepark,skate park,ab,51.15621411,-114.2289763
Rose Kohn Arena,arena,ab,50.98047503,-114.0748949
Rosedale Community Centre,community centre,ab,51.06215285,-114.0814341
Rosemont Community Centre,community centre,ab,51.07675296,-114.0860375
Rosscarrock Community Centre,community centre,ab,51.04279765,-114.1507529
Rotary Centennial Plaza,splash pad,ab,49.69644883,-112.8380451
Rotary Centennial Spray Fountain,splash pad,ab,49.69644532,-112.8380457
Rotary Challenger Park,athletic park,ab,51.09916569,-113.9835253
Rotary Park Spray Park,splash pad,ab,51.05729653,-114.0605048
Rundle Community Centre,community centre,ab,51.07467132,-113.9619986
Rundle Park Iceway,rink,ab,53.555951,-113.386557
Russ Barnes Arena,arena,ab,53.57497055,-113.4464072
Rutland Park Community Centre,community centre,ab,51.01838774,-114.1352659
Saddle Ridge Community Centre,community centre,ab,51.12084344,-113.972859
Saddletowne Ymca,gym,ab,51.12031348,-113.9478458
Saville Sports Centre,community centre,ab,53.50327822,-113.5287811
Scarboro Community Centre,community centre,ab,51.04040342,-114.101184
Scenic Acres Community Centre,community centre,ab,51.12170817,-114.2147644
Scona Pool,pool,ab,53.50933187,-113.5002965
Seniors On The Bow,arena,ab,51.17583214,-114.4537879
Servus Sports Centre,community centre,ab,49.6659098,-112.8055692
Shaganappi Community Centre,community centre,ab,51.03991525,-114.1189263
Shaw Millennium Park,skate park,ab,51.04612829,-114.0918707
Shawnessy Community Centre,community centre,ab,50.90670901,-114.0751574
Shawnessy Ymca,gym,ab,50.89811407,-114.064552
Sherwood Heights Junior High School,rink,ab,53.51812307,-113.308887
Sherwood Park Arena/Sports Cen,arena,ab,53.52697782,-113.3053243
Shouldice Arena,arena,ab,51.07107029,-114.1654292
Shouldice Athletic Park,athletic park,ab,51.07398474,-114.1694304
Silver Springs Community Centre,community centre,ab,51.10465214,-114.1925301
Silver Springs Outdoor Pool,pool,ab,51.10404388,-114.1923413
Sir Winston Churchill Aquatic & Rec Ctr,community centre,ab,51.0968838,-114.1379182
Skate Park,skate park,ab,50.91443028,-114.056436
Skating Rink,rink,ab,51.01190702,-114.1037739
Slp Skate Park,skate park,ab,49.68973028,-112.8074876
South Bank Trail,trail,ab,52.2343424,-113.8213405
South Calgary Community Centre,community centre,ab,51.02599472,-114.0983094
South Calgary Outdoor Pool,pool,ab,51.02525037,-114.0988701
South Clareview Community League,community centre,ab,53.59398558,-113.391227
South Cooking Lake Day Use Park,rink,ab,53.41132666,-113.1139047
South Health Campus Ymca,gym,ab,50.88190307,-113.9508688
Southland (Ed Whalen Arena),arena,ab,50.96237074,-114.1073633
Southview Community Centre,community centre,ab,51.03332154,-113.9879885
Southwood Community Centre,community centre,ab,50.95678372,-114.0865931
Southwood Skatepark,skate park,ab,50.95608108,-114.0872003
Spitz Stadium,stadium,ab,49.68970356,-112.8056144
Spray Pool / Deck,pool,ab,55.1734018,-118.8054207
Spruce Cliff Community Centre,community centre,ab,51.04750374,-114.1363299
St Edwards Fitness Area,gym,ab,49.72177881,-112.8285884
St. Andrews Heights Community Centre,community centre,ab,51.06404099,-114.121361
St. Francis Xavier Sports Centre,community centre,ab,53.5283577,-113.6038041
Stan Siwik Family Pool,pool,ab,49.71887288,-112.813542
Stanley Park Outdoor Pool & Wading Pool,pool,ab,51.01720587,-114.0692974
Strathcona Athletic Park,rink,ab,53.52625831,-113.2653707
Strathcona Olympiette Centre,community centre,ab,53.45997618,-113.1923601
Strathcona Wilderness Centre,community centre,ab,53.53256532,-112.9990007
Strathcona/Christie Park Community Centre,community centre,ab,51.04727008,-114.1799694
Stu Peppard Arena,arena,ab,51.00638699,-114.1037355
Sunalta Community Centre,community centre,ab,51.04417435,-114.0983343
Ted Petrunia Park Horseshoe Pits,park,ab,49.72047155,-112.82
Temple Community Centre,community centre,ab,51.08740934,-113.9448539
Terwillegar Arena,arena,ab,53.45901967,-113.5841361
Terwillegar Community Recreation Centre,community centre,ab,53.4555936,-113.5806482
The Meadows Arena,arena,ab,53.45773521,-113.3718306
The Meadows Outdoor Leisure Ice,rink,ab,53.4576754,-113.3733808
The Oxbows Off Leash Dog Park,park,ab,52.2594396,-113.7902332
Thorncliffe / Greenview Ca,arena,ab,51.10154221,-114.0617598
Thorncliffe/Greenview Community Centre,community centre,ab,51.1012063,-114.0616125
Thornhill Aquatic & Recreation Centre,community centre,ab,51.11257027,-114.06529
Tim Bannister Memorial Rink,rink,ab,51.19099389,-114.4617622
Tipton Arena,arena,ab,53.51692895,-113.5116535
Tom Brook Athletic Park,athletic park,ab,50.9638534,-114.1078208
Trailway Motor Inn Motel,trail,ab,53.47585155,-113.4933564
Triwood Ca,arena,ab,51.08625326,-114.1108757
Triwood Community Centre,community centre,ab,51.08631751,-114.1117154
Tuscany Community Centre,community centre,ab,51.12459038,-114.2456446
Tuxedo Park Community Centre,community centre,ab,51.07891772,-114.0596401
U Of L Community Stadium,stadium,ab,49.66806831,-112.8657087
Uncas Elementary School,rink,ab,53.51100216,-113.0290117
University Of Alberta Swimming Pools,pool,ab,53.52482599,-113.5218012
Valleyview Spray Park,splash pad,ab,51.0265061,-113.9940182
Variety Park Spray Park,splash pad,ab,50.97426747,-114.1216529
Varsity Community Centre,community centre,ab,51.0919828,-114.1492338
Vertically Inclined Park Climbing Gymn,gym,ab,53.50163155,-113.4602528
Victoria Park Iceway,rink,ab,53.5340916,-113.5254867
Victoria Park Ski Trails,trail,ab,53.5375467,-113.5211289
Victoria Trail Apartments,trail,ab,53.61280348,-113.3781713
Village Square Arena #1,arena,ab,51.07550723,-113.9543299
Waskasoo Playground,playground,ab,52.276585,-113.801421
Watermark All-Wheel Park,skate park,ab,49.65235104,-112.880047
Watermark Fitness Gym,gym,ab,49.65230155,-112.8796687
West Hillhurst Ca,arena,ab,51.0580742,-114.104541
West Hillhurst Community Centre,community centre,ab,51.05818078,-114.10461
Westgate Community Centre,community centre,ab,51.04463307,-114.1578973
Westminster Pool,pool,ab,49.70528546,-112.8189367
Westside Recreation Centre,community centre,ab,51.0357134,-114.1855656
Westside Skatepark,skate park,ab,51.0342006,-114.187032
Westwood Arena,arena,ab,53.57475053,-113.4933594
Whitehorn Community Centre,community centre,ab,51.08878862,-113.96695
Wildwood Community Centre,community centre,ab,51.05188635,-114.1508801
William Hawrelak Park Ski Trails,trail,ab,53.5278692,-113.5496332
William Pearce Park Lake,park,ab,49.66012406,-112.8636197
Willow Brook Park Horseshoe Pits,park,ab,49.68525839,-112.8942547
Willow Park / Mapleridge Community Centre,community centre,ab,50.95989273,-114.0433391
Wilson Middle School - 9 Ave N Fitness Area,gym,ab,49.71295049,-112.8117788
Windsor Park Community Centre,community centre,ab,51.00640371,-114.0785467
Winston Heights/Mountview Community Centre,community centre,ab,51.07736047,-114.0521206
Woodbine Athletic Park,athletic park,ab,50.93736894,-114.1197248
Woodbridge Lake Park,splash pad,ab,53.53194005,-113.3240899
Woodcreek Community Centre,community centre,ab,50.9411119,-114.1048706
World Health St Albert Trail,trail,ab,53.59780706,-113.5732894
Yellowbird (East) Community League,community centre,ab,53.44870126,-113.5049076
28 St N Softball Diamond,sports field,ab,49.70741172,-112.8007034
43Rd Street Tennis Court,sports field,ab,49.68304072,-112.7803664
Ab Macdonald,sports field,ab,53.55396494,-113.5685504
Ab O'Leary,sports field,ab,53.59367512,-113.4723907
Abbottsfield,sports field,ab,53.57326575,-113.3895235
Ace Tennis Academy,sports field,ab,53.55104724,-113.5448488
École La Vérendrye Diamond,sports field,ab,49.68972533,-112.8097784
École La Vérendrye Junior Soccer Field,sports field,ab,49.68978673,-112.8108329
École La Vérendrye Mini Soccer,sports field,ab,49.69002466,-112.8103368
École La Vérendrye Soccer Field,sports field,ab,49.69086333,-112.8098119
Afton,sports field,ab,53.52763012,-113.6090071
Agnes Davidson Diamond,sports field,ab,49.67096367,-112.8102779
Agnes Davidson North Mini Soccer,sports field,ab,49.671916,-112.8101403
Agnes Davidson South Mini Soccer,sports field,ab,49.67127136,-112.81061
Airway Pk,sports field,ab,53.56045833,-113.5129782
Alberta Avenue,sports field,ab,53.57184359,-113.4833829
Alberta Picnic Shelter,miscellaneous,ab,49.69436994,-112.8620709
Aldergrove,sports field,ab,53.51828549,-113.6344584
Alex Taylor,sports field,ab,53.5459244,-113.4761623
Algonquin Park Basketball Court,sports field,ab,49.6815968,-112.8834027
Allendale,sports field,ab,53.50239881,-113.5030773
Anne Fitzgerald,sports field,ab,53.59509817,-113.3826043
Antler Lake Park,sports field,ab,53.49034577,-112.9692545
Antler Lake Uncas Community Hall,sports field,ab,53.50350415,-112.9716797
Ardrossan Athletic Park,sports field,ab,53.55874287,-113.1442777
Argyll Pk,sports field,ab,53.5059129,-113.4608864
Assumption School Diamond,sports field,ab,49.67835627,-112.8098327
Assumption School Soccer Fields,sports field,ab,49.67875678,-112.8092069
Athlone,sports field,ab,53.58896091,-113.5454621
Atso Towaawa Ball Diamonds,sports field,ab,49.68633968,-112.8907274
Atso Towaawa Field,sports field,ab,49.68727076,-112.8915779
Atso Towaawa Mini Soccer Field,sports field,ab,49.68552814,-112.8903804
Austin O'Brien,sports field,ab,53.53565692,-113.4242998
Austin O'Brien Tennis Courts,sports field,ab,53.53386635,-113.4259056
Avalon,sports field,ab,53.49239542,-113.5232594
Avonair Curling Club,rink,ab,53.56578105,-113.5033919
Avonmore,sports field,ab,53.51054102,-113.4492003
Ball Diamond,sports field,ab,51.0353551,-114.094379
Balwin,sports field,ab,53.59178207,-113.4478459
Bannerman,sports field,ab,53.60435699,-113.3801428
Baroness Picnic Shelter,miscellaneous,ab,49.6954544,-112.8599188
Basketball,sports field,ab,51.04355588,-113.9717853
Baturyn,sports field,ab,53.6314322,-113.5049903
Beach Volleyball Field,sports field,ab,55.13535967,-118.7956672
Beacon Heights,sports field,ab,53.57570995,-113.4125888
Bear Creek Golf Club,sports field,ab,55.2017774,-118.8401796
Bearspaw,sports field,ab,53.44461959,-113.5002595
Beaumaris,sports field,ab,53.61666897,-113.4986328
Belgravia,sports field,ab,53.50951193,-113.5325385
Belle Rive,sports field,ab,53.62593082,-113.4687078
Bellevue,sports field,ab,53.56875454,-113.4485116
Belmead,sports field,ab,53.5256309,-113.6367197
Belmont,sports field,ab,53.59441542,-113.3922467
Belvedere,sports field,ab,53.59435404,-113.433929
Ben Calf Robe,sports field,ab,53.57158152,-113.4378257
Bill Kucheran Field (Lakeview East Diamond),sports field,ab,49.67745442,-112.7940687
Bishop Greschuk,sports field,ab,53.63550517,-113.4812882
Bishop Savaryn,sports field,ab,53.62220276,-113.5070799
Blackwolf Diamond,sports field,ab,49.73537064,-112.8102692
Blackwolf Mini Soccer Fields,sports field,ab,49.73379243,-112.8120341
Blackwolf Park Cricket Pitch,sports field,ab,49.73420941,-112.8107177
Blue Devil Golf Club,sports field,ab,50.8840349,-114.00718
Blue Quill,miscellaneous,ab,53.4584744,-113.521548
Blue Quill Ii,sports field,ab,53.45765023,-113.5381896
Bonnie Doon,sports field,ab,53.52483811,-113.4554221
Bonnie Doon Tennis Courts,sports field,ab,53.52366495,-113.4561878
Borden Pk,sports field,ab,53.56226361,-113.4613882
Bow Ridge,sports field,ab,51.18533287,-114.5054981
Braemar,sports field,ab,53.53174857,-113.4273911
Brander Gardens,sports field,ab,53.49288473,-113.5773327
Bridge Valley Golf Course,sports field,ab,49.70517199,-112.8737533
Brightview,sports field,ab,53.54938612,-113.5887264
Broadmoor Public Golf Course,sports field,ab,53.53072619,-113.309333
Broadmoor Tennis Club,sports field,ab,53.52948021,-113.3068556
Broadmoor Tennis Courts,sports field,ab,53.52955208,-113.3069965
Brookfield Residential Ymca At Seton,gym,ab,50.87963815,-113.945766
Brookside,sports field,ab,53.49183588,-113.5697805
Brookville Ball Diamonds,sports field,ab,53.56491834,-113.0025858
Caernarvon,sports field,ab,53.60950149,-113.5257943
Calder,sports field,ab,53.58971934,-113.5260357
Calgary Canoe & Rowing Club,miscellaneous,ab,50.98647579,-114.1173659
Calgary Soccer Centre,sports field,ab,50.99244324,-113.9609282
Callingwood Pk,sports field,ab,53.50787528,-113.6273185
Canola Harvest Field,sports field,ab,49.70870797,-112.8381151
Canyoncrest Lookout 1,miscellaneous,ab,49.65747699,-112.8392933
Canyoncrest Lookout 2,miscellaneous,ab,49.65663328,-112.8379977
Capilano,sports field,ab,53.55419782,-113.4222248
Capilano Community League & Tennis Club,sports field,ab,53.55742907,-113.4224476
Capilano Tennis Club,sports field,ab,53.55737909,-113.4232633
Cardel Rec South,community centre,ab,50.8970183,-114.0636679
Carlisle Park,sports field,ab,53.60433334,-113.5241019
Casselman,sports field,ab,53.61203069,-113.4197021
Castledowns,sports field,ab,53.61804138,-113.5213592
Cch Diamond,sports field,ab,49.69559509,-112.8135737
Chatwin Park,sports field,ab,53.54430307,-113.2734684
Children Of St. Martha Diamond,sports field,ab,49.67227537,-112.8859386
Children Of St. Martha Soccer Fields,sports field,ab,49.67290957,-112.8862168
Civic Athletic Field Track,sports field,ab,49.69221795,-112.8313036
Clara Tyner,sports field,ab,53.53245708,-113.4361488
Clareview Field Artificial Turf - Staffed Field,sports field,ab,53.602192,-113.4053441
Clarkdale Meadows Pond,sports field,ab,53.55081035,-113.2515554
Clarkdale Park,sports field,ab,53.5529158,-113.2517563
Clarke Field,sports field,ab,53.55790022,-113.4781696
Clover Bar Junior High School,sports field,ab,53.53701345,-113.3106014
Club Soccer,sports field,ab,53.42862836,-113.4145802
Coalbanks School Ball Diamond,sports field,ab,49.66492691,-112.9114395
Coalbanks School Basketball Court,sports field,ab,49.66515607,-112.9084192
Coalbanks School Soccer Field,sports field,ab,49.66510568,-112.9098453
Cochrane Rangers,sports field,ab,51.18183272,-114.4884562
Colchester Community Hall,sports field,ab,53.45320528,-113.2995923
Columbia Park Diamond,sports field,ab,49.66898169,-112.887674
Confederation,sports field,ab,53.48237734,-113.5233561
Confederation Park Golf Course,sports field,ab,51.07910903,-114.1016949
Confederation Park Tennis Courts,sports field,ab,53.47915376,-113.5160785
Coronation,sports field,ab,53.55558817,-113.5590718
Coronation Park - Staffed Field,sports field,ab,53.5617938,-113.5590499
Coronation Pk,sports field,ab,53.56309725,-113.5570406
Cottonwood Park,sports field,ab,53.51850613,-113.3014325
Country Side Golf Course,sports field,ab,53.43578216,-113.3015321
Craigavon Park,sports field,ab,53.53742485,-113.2674822
Crawford Plains,sports field,ab,53.44076025,-113.4060411
Crestwood,sports field,ab,53.53434613,-113.5695167
Crestwood Curling Club Ltd,rink,ab,53.53419438,-113.5654825
Cricket,sports field,ab,51.11701754,-113.9641012
Cricket Pitch,sports field,ab,55.18907681,-118.8043534
Crossings Basketball Court 1,sports field,ab,49.67580714,-112.9082976
Crossings Basketball Court 2,sports field,ab,49.67573039,-112.9073717
Crossings Basketball Court 3,sports field,ab,49.67429377,-112.9102704
Crossings Basketball Court 4,sports field,ab,49.67443492,-112.9104073
Crossings Park - Central Diamond,sports field,ab,49.6753467,-112.9100846
Crossings Park - East Diamond,sports field,ab,49.67663813,-112.9063199
Crossings Park - East Fields,sports field,ab,49.67689567,-112.9085626
Crossings Park - East Tennis Courts (4),sports field,ab,49.67559985,-112.9087858
Crossings Park - West Diamond,sports field,ab,49.6743894,-112.9127807
Crossings Park - West Fields,sports field,ab,49.67589585,-112.9127463
Crossings Park - West Tennis Courts (4),sports field,ab,49.6748223,-112.9118065
Crossings Park Football Fields,sports field,ab,49.67582493,-112.9127569
Cumberland,sports field,ab,53.61189441,-113.545769
Curling Club,rink,ab,51.19007361,-114.4755505
Daly Grove,sports field,ab,53.44894703,-113.4023401
Dan Knott,sports field,ab,53.44682879,-113.4558193
Dave Elton Park Diamonds,sports field,ab,49.70824245,-112.8352467
Dave Elton Soccer Field,sports field,ab,49.70888623,-112.8403049
Davenport Park,sports field,ab,53.55268414,-113.2589463
Delton,sports field,ab,53.57649519,-113.4789933
Delwood,sports field,ab,53.59589266,-113.4556839
Dickensfield,sports field,ab,53.60534422,-113.4789651
Disc Golf,sports field,ab,51.09829646,-114.0596475
Donnan,sports field,ab,53.5146956,-113.459463
Douglasdale Eaglequest Golf Course,sports field,ab,50.94570744,-114.0035991
Dovercourt,sports field,ab,53.57586471,-113.560438
Ds Mckenzie,sports field,ab,53.47714057,-113.5073566
Duggan,sports field,ab,53.47200329,-113.505022
Dunluce,sports field,ab,53.6226997,-113.5254225
Eagle Rock Golf Course,sports field,ab,53.34103701,-113.3374973
Eagle Terrace Park,sports field,ab,51.08936489,-115.3275008
Earl Buxton,sports field,ab,53.47316353,-113.5830945
East Slope Lookout,miscellaneous,ab,49.66507586,-112.8346303
Eastglen,sports field,ab,53.56819351,-113.4472195
Eastlink Centre,pool,ab,55.14447837,-118.812411
Eastwood,sports field,ab,53.57572303,-113.4647567
Ecole Campbelltown School,sports field,ab,53.51892268,-113.3126967
Ecole Our Lady Of Perpetual Help Catholic School,sports field,ab,53.5180608,-113.3048114
Ecole Pere Kenneth Kearns Catholic School,sports field,ab,53.52485695,-113.2933777
Edith Rogers,sports field,ab,53.47599073,-113.4567595
Edm Chinese,sports field,ab,53.50232994,-113.4667879
Edmonton Minor Soccer Association,sports field,ab,53.43028538,-113.408301
Edmonton Soccer Centre - East,sports field,ab,53.57938094,-113.3844148
Edmonton Soccer Centre - South,sports field,ab,53.49469644,-113.4297501
Edmonton Soccer Centre - West,sports field,ab,53.55319942,-113.6237165
Edmonton Valley Zoo,miscellaneous,ab,53.5175706,-113.5655773
Ekota,sports field,ab,53.44768924,-113.4432992
Elisabeth Rummel,sports field,ab,51.08530576,-115.333148
Elizabeth Hall Wetlands - Wildlife Blind Lookout,miscellaneous,ab,49.70128575,-112.8701162
Elizabeth Seton,sports field,ab,53.59579754,-113.3937975
Elk Island National Park Golf Course,sports field,ab,53.67124338,-112.8278174
Elk Run Park,sports field,ab,51.08092975,-115.3260985
Elks Community Area Horseshoe Pits,miscellaneous,ab,49.69169386,-112.8623678
Elks Community Recreation Area,miscellaneous,ab,49.69193443,-112.8621766
Elks Community Recreation Area Volleyball Court,sports field,ab,49.69240426,-112.8620925
Ellerslie,sports field,ab,53.42627369,-113.4396141
Elmwood,sports field,ab,53.51472108,-113.6055737
Ermineskin,sports field,ab,53.46046863,-113.5039293
Estates Of Sherwood Park Sport Field Park,sports field,ab,53.50800574,-113.2941565
Evansdale,sports field,ab,53.60924336,-113.4837078
Evergreen Golf Centre,sports field,ab,49.6695195,-112.7620741
F.R. Haythorne Junior High School,sports field,ab,53.53008084,-113.2668223
Father Lacombe,sports field,ab,53.5905708,-113.5055106
Field,sports field,ab,53.56027037,-113.4756457
Field Hockey,rink,ab,51.07789101,-114.1139757
Fleetwood Bawden Diamonds,sports field,ab,49.68505154,-112.8265209
Fleetwood Bawden Soccer Fields,sports field,ab,49.68598213,-112.8263015
Floden Pk,sports field,ab,53.56390726,-113.4051573
Florian Park,sports field,ab,53.51903532,-113.2569594
Flvt Diamond,sports field,ab,49.69053437,-112.8909805
Flvt Soccer Fields,sports field,ab,49.68942123,-112.8909262
Football,sports field,ab,51.08227983,-114.1038025
Foote Field,sports field,ab,53.50412658,-113.5299136
Foothills Aquatic Centre,pool,ab,51.07409978,-114.1254429
Forest Heights,sports field,ab,53.54390954,-113.4584254
Forest Heights Tennis Courts,sports field,ab,53.54075946,-113.4568588
Fort Saskatchewan Golf Curling Club,sports field,ab,53.7057462,-113.2052909
Fountain Creek Sports Park,sports field,ab,53.49953087,-113.3269091
Fox Hollow Golf Course,sports field,ab,51.07461582,-114.0317289
Fox Run Golf Course,sports field,ab,53.63220508,-113.1785734
Foxboro Park,sports field,ab,53.52490613,-113.2562128
Fraser,sports field,ab,53.61176185,-113.3749231
Frere Antoine,sports field,ab,53.46102878,-113.4511556
Frisbee Golf,sports field,ab,51.14803541,-114.2049902
Fthr Leo Green,sports field,ab,53.60850005,-113.4569275
Fulton Place,sports field,ab,53.5458605,-113.4244625
Fultonvale Elementary Junior High School,sports field,ab,53.4592674,-113.1893937
Fultonvale Fastball,sports field,ab,53.4474117,-113.234662
G.S. Lakie Diamond,sports field,ab,49.67873811,-112.8959342
G.S. Lakie Field,sports field,ab,49.67846337,-112.8942641
Galbraith Soccer Fields,sports field,ab,49.71232346,-112.8186947
Galt Gardens Picnic Area,miscellaneous,ab,49.69657314,-112.837685
Garden Park,sports field,ab,53.51105636,-113.1246152
Garneau,sports field,ab,53.52261931,-113.514743
General Stewart School Diamond,sports field,ab,49.693613,-112.7978623
General Stewart School Soccer Field,sports field,ab,49.69313056,-112.7982292
Genesis Centre Of Community Wellness,community centre,ab,51.12067737,-113.9492812
George Luck,sports field,ab,53.47532163,-113.5749069
George Vaselenak Miners Library Ball Park,sports field,ab,49.71878875,-112.815717
George Yoshinaka Field,sports field,ab,49.708753,-112.8367027
Georgetown Park Basketball Court,sports field,ab,49.74094157,-112.8291523
Gerald Probe Diamond,sports field,ab,49.65746642,-112.8762037
Gerald Probe Soccer Field,sports field,ab,49.65832467,-112.8751241
Gilbert Patterson Diamonds,sports field,ab,49.68099731,-112.8100169
Gilbert Patterson Mini Soccer,sports field,ab,49.68138309,-112.8103006
Gilbert Patterson Soccer Fields,sports field,ab,49.68057722,-112.809207
Gilmore Park,sports field,ab,53.53854841,-113.2888198
Glen Allan Elementary School,sports field,ab,53.53723277,-113.2800204
Glen Eagles,sports field,ab,51.18936671,-114.4497298
Glendale # 1 Di,sports field,ab,53.64243621,-113.50411
Glendale # 1 So,sports field,ab,53.64227656,-113.508383
Glendale # 2 Di,sports field,ab,53.6412934,-113.5052374
Glengarry,sports field,ab,53.59456944,-113.4839303
Glengarry Tennis Courts,sports field,ab,53.59586526,-113.4799432
Glenmore Aquatic Centre,pool,ab,51.006235,-114.1054115
Glenmore Sailing School,miscellaneous,ab,50.97870365,-114.0974782
Glenora,sports field,ab,53.54480879,-113.5550147
Goldbar,sports field,ab,53.55056945,-113.4145099
Goldstick,sports field,ab,53.54786069,-113.4029113
Goldstick Park & Pavilion - Staffed Field,sports field,ab,53.5449946,-113.4046893
Golf Course Fort Sask,sports field,ab,53.70564244,-113.2085147
Good Hope Community Hall,sports field,ab,53.65812547,-112.9746585
Grace Martin,sports field,ab,53.47052795,-113.4574419
Grand Trunk,sports field,ab,53.59190198,-113.510001
Grand Trunk # 1,sports field,ab,53.50419909,-113.6730863
Grand Trunk # 2,sports field,ab,53.50501595,-113.6724099
Grand Trunk # 4,sports field,ab,53.60635413,-113.4994796
Grande Prairie Curling Centre,rink,ab,55.16950531,-118.7997862
Grande Prairie Disc Golf Club,sports field,ab,55.16546092,-118.8026251
Grandstand - Planned,miscellaneous,ab,55.14267465,-118.8169382
Grandview,sports field,ab,53.50000018,-113.5446874
Greenfield,sports field,ab,53.47185819,-113.5241699
Greengrove Park,sports field,ab,53.53258581,-113.2841072
Greenview,sports field,ab,53.47516045,-113.4284576
Grovenor,sports field,ab,53.54540954,-113.5667366
Grovenor # 1 So,sports field,ab,53.60681221,-113.4983268
Gunnery Point Picnic Shelter,miscellaneous,ab,49.68896467,-112.7907776
Gyro Tennis Courts (4),sports field,ab,49.71930521,-112.8136406
Hairsine,sports field,ab,53.60499966,-113.3948337
Hardisty,sports field,ab,53.54831946,-113.4298824
Hazeldean,sports field,ab,53.50480257,-113.4766903
He Beriault,sports field,ab,53.51487799,-113.6081748
Henderson Est,sports field,ab,53.46824296,-113.5961422
Henderson Horseshoe Club,miscellaneous,ab,49.68778369,-112.8057874
Henderson Horseshoe Club Picnic Area,miscellaneous,ab,49.68792239,-112.805537
Henderson Lake,miscellaneous,ab,49.68781438,-112.799748
Henderson Lake Golf Club,sports field,ab,49.68507791,-112.7998702
Herb Link,sports field,ab,53.62480852,-113.5324929
Herb Link # 1 D,sports field,ab,53.45478335,-113.5952155
Herb Link # 1 S,sports field,ab,53.45859053,-113.5580411
Herb Link # 2 D,sports field,ab,53.45505654,-113.5976908
Herb Link # 2 S,sports field,ab,53.46237034,-113.4249942
Herb Link # 3 D,sports field,ab,53.45450462,-113.5965618
Herb Link # 4 S,sports field,ab,53.4624597,-113.4269891
Heritage Hills Sports Park,sports field,ab,53.53611126,-113.256803
Heritage Point Park,sports field,ab,53.53775891,-113.2494605
High Board (Hockey),rink,ab,55.13903831,-118.7822686
High Park # 1 S,sports field,ab,53.45264986,-113.5967807
High Pk,sports field,ab,53.55650189,-113.5858944
Highlands,sports field,ab,53.57022982,-113.4342178
Highlands Golf Club,sports field,ab,53.56488716,-113.4374705
Hillview,sports field,ab,53.47018818,-113.4282719
Hockey Impact Training,rink,ab,53.56514071,-113.5651051
Hollick Kenyon,sports field,ab,53.62241046,-113.4223688
Hollick-Kenyon,sports field,ab,53.62246372,-113.4213769
Holy Cross,sports field,ab,53.54782008,-113.5803289
Holyrood,sports field,ab,53.53269227,-113.4497227
Homesteader,sports field,ab,53.58680502,-113.4127002
Horse Hill,sports field,ab,53.65748644,-113.3420966
Horseshoes,miscellaneous,ab,50.98287832,-113.9733639
Idywylde,sports field,ab,53.52304583,-113.4534166
Indoor Soccer Pitch,sports field,ab,55.1834728,-118.8106818
Inglewood,sports field,ab,53.56586316,-113.5389851
Inglewood # 1 D,sports field,ab,53.41971913,-113.5142461
Inglewood # 1 S,sports field,ab,53.43040737,-113.4599837
Inglewood # 2 S,sports field,ab,53.43049306,-113.4587376
Inglewood # 4 D,sports field,ab,53.41930609,-113.5146212
Inglewood Aquatic Centre,pool,ab,51.03744097,-114.0286618
Inglewood Golf & Curling Club,sports field,ab,51.03260662,-114.0021227
Ja Fife,sports field,ab,53.61347848,-113.4622532
Jackson Heights,sports field,ab,53.48279425,-113.4062552
James Gibbons,sports field,ab,53.52289867,-113.5836031
Jasper Place,sports field,ab,53.52561652,-113.6059814
Jasper Place Bowl Artificial Turf - Staffed Field,sports field,ab,53.5274003,-113.6075424
Jasper Place Curling Club,rink,ab,53.55092112,-113.6027627
Jc Bowen,sports field,ab,53.61020841,-113.474411
Jean Vanier Catholic School,sports field,ab,53.5355008,-113.2835981
Jeanne D'Arc,sports field,ab,53.52092331,-113.4291775
Jeanne Sauvé Picnic Area,miscellaneous,ab,49.75505658,-112.8484162
Jh Picard,sports field,ab,53.5082192,-113.4846088
Jj Bowlen,sports field,ab,53.60704012,-113.4362525
John Barnett,sports field,ab,53.60977754,-113.4509117
John Fry Park - Staffed Field,sports field,ab,53.4609535,-113.480854
John Fry Pk E,sports field,ab,53.46302966,-113.4717908
John Martin Recreation Area,miscellaneous,ab,49.75276517,-112.8494452
John Martin Recreation Area Volleyball Court,sports field,ab,49.75274843,-112.8484884
John Paul I,sports field,ab,53.47144129,-113.4259264
John Thompson,sports field,ab,53.5912869,-113.5549091
Josephburg Gymkhana,sports field,ab,53.71491335,-113.0261896
Josephburg Park,sports field,ab,53.71381956,-113.0698529
Jp Bowl,sports field,ab,53.52784615,-113.6056168
Jubilee Park Legion Sports Field Ft. Sask.,sports field,ab,53.70564244,-113.2085147
Jubilee Pk,sports field,ab,53.5281127,-113.5974934
K Therrian,sports field,ab,53.61033827,-113.5290584
Kameyosek,sports field,ab,53.46143646,-113.4439604
Kaskitayo,miscellaneous,ab,53.45167636,-113.5094092
Keheewin,sports field,ab,53.45068377,-113.5060974
Kenilworth,sports field,ab,53.522663,-113.435127
Kensington,sports field,ab,53.59639266,-113.5297685
Kernohan,sports field,ab,53.59292735,-113.3820097
Kildare,sports field,ab,53.60581856,-113.4568848
Killarney,sports field,ab,53.59185279,-113.4833848
King Edward,sports field,ab,53.52166113,-113.4889177
Kings Point Lookout,miscellaneous,ab,49.66327155,-112.8186172
Kiniski Gardens,park,ab,53.47373888,-113.3983216
Kinsmen,sports field,ab,53.52836704,-113.5093305
Kinsmen Park Basketball Court,sports field,ab,49.68654183,-112.8306017
Kinsmen Park Tennis Courts (2),sports field,ab,49.68651246,-112.8302726
Kinsmen Picnic Shelter,miscellaneous,ab,49.68944369,-112.796003
Kirkness,sports field,ab,53.61269366,-113.3931462
Kiwanis Picnic Shelter,miscellaneous,ab,49.68977017,-112.7934853
Klarvatten,sports field,ab,53.63429469,-113.4776049
Lacrosse,miscellaneous,ab,51.08244496,-114.1023276
Lady Of Fatima,sports field,ab,53.53734061,-113.5924999
Lady Of Peace,sports field,ab,53.55557369,-113.5962256
Lady Prairies,sports field,ab,53.49900725,-113.6262978
Lago Lindo,sports field,ab,53.6357961,-113.4858089
Lakeside Greens Golf Club,sports field,ab,51.0420774,-113.830221
Lakeview Greenstrip Basketball Court,sports field,ab,49.68054407,-112.7874596
Lakeview School Diamonds,sports field,ab,49.67895026,-112.795665
Lakeview School Fields,sports field,ab,49.67876776,-112.7944658
Lakeview West Diamond,sports field,ab,49.67809537,-112.7962975
Landsdowne,sports field,ab,53.48602818,-113.5432579
Laperle E,sports field,ab,53.53288532,-113.6348373
Laperle W,sports field,ab,53.53252835,-113.6417187
Lauderdale,sports field,ab,53.58821737,-113.501916
Laurier Heights,sports field,ab,53.51609571,-113.566855
Laval Park Basketball Court,sports field,ab,49.66708663,-112.8724902
Lawn Bowling,sports field,ab,51.08475571,-114.1822386
Lawton,sports field,ab,53.5688895,-113.4043827
Lci Ball Diamonds,sports field,ab,49.69526971,-112.817178
Lci Soccer Fields,sports field,ab,49.69531985,-112.818828
Lee Ridge,sports field,ab,53.47082982,-113.4454538
Legacy Park Basketball Court 1 (West),sports field,ab,49.73721794,-112.816087
Legacy Park Basketball Court 2 (East),sports field,ab,49.73716505,-112.8156888
Legacy Park Tennis Courts (2),sports field,ab,49.73781351,-112.8154498
Legacy Ridge East Soccer Field,sports field,ab,49.73529852,-112.8304871
Legacy Ridge West Soccer Field,sports field,ab,49.73527689,-112.831638
Lethbridge (Henderson) Tennis Club,sports field,ab,49.69044974,-112.8033814
Lethbridge Christian School Fields,sports field,ab,49.7241905,-112.8317548
Lethbridge Country Club,sports field,ab,49.67284966,-112.8451974
Lethbridge Curling Club (Atb Centre),rink,ab,49.67165319,-112.9122333
Lethbridge Sports Park,sports field,ab,49.73138674,-112.7972802
Lewis Estates Golf Course,sports field,ab,53.51758239,-113.6804667
Links Golf Course,sports field,ab,53.56006899,-113.9029258
Lions Centennial Park Basketball Court,sports field,ab,49.67290175,-112.8061711
Lloyd Nolan Yard,sports field,ab,49.71000408,-112.837794
Lorelei,sports field,ab,53.62458358,-113.5027172
Ly Cairns,sports field,ab,53.48378997,-113.5038105
Lymburn,sports field,ab,53.50699289,-113.6426366
Lymburn # 3 Soc,sports field,ab,53.60827392,-113.4567608
Lynnwood,sports field,ab,53.51609997,-113.5890176
M A Kostek,sports field,ab,53.48990992,-113.6485828
M Butterworth,sports field,ab,53.62462767,-113.5046395
M Lavallee,sports field,ab,53.52590394,-113.474274
Madonna Catholic School,sports field,ab,53.53861618,-113.3170922
Malcolm Tweedle,sports field,ab,53.47767516,-113.4543499
Malmo,sports field,ab,53.48474203,-113.5316082
Maple Ridge,sports field,ab,53.50556244,-113.3652845
Maple Ridge Golf Course,sports field,ab,50.95230247,-114.0329798
Maria Goretti,sports field,ab,53.58570962,-113.4087542
Mary Hanley,sports field,ab,53.45994466,-113.3983221
Matt Berry,sports field,ab,53.62198072,-113.4326321
Matt Kroll,sports field,ab,51.17514104,-114.4686087
Mayfair Golf Course,sports field,ab,53.53332927,-113.5467405
Mcarthur,sports field,ab,53.5978786,-113.5476557
Mccall Lake Golf Course,sports field,ab,51.08417443,-114.0207407
Mccauley,sports field,ab,53.5536348,-113.4841976
Mcdougall,sports field,ab,53.55508921,-113.5050415
Mckee,sports field,ab,53.48706388,-113.5082617
Mckenzie Meadows Golf Club,sports field,ab,50.90091266,-114.0023172
Mckernan,sports field,ab,53.51330793,-113.5240865
Mckillop Ball Diamonds,sports field,ab,49.70351151,-112.812551
Mckillop Mini Soccer Field,sports field,ab,49.70453581,-112.8111943
Mckillop Soccer Field,sports field,ab,49.70399675,-112.811367
Mcleod,sports field,ab,53.611057,-113.4290473
Mcnally,sports field,ab,53.54869441,-113.4615678
Mcqueen,sports field,ab,53.55543004,-113.5708026
Me Lazerte,sports field,ab,53.6084109,-113.4438117
Meadowlark,sports field,ab,53.52544152,-113.595348
Meadowview Park,sports field,ab,53.54342816,-113.2520364
Mee Yah Noh,sports field,ab,53.5883049,-113.4827889
Menisa,sports field,ab,53.44302335,-113.4499741
Meyokumin,sports field,ab,53.44843976,-113.4282965
Meyonohk,sports field,ab,53.45635039,-113.4567102
Michael Strembitsky,sports field,ab,53.41414692,-113.4638059
Michaels Pk,sports field,ab,53.47967789,-113.4507085
Mike Mountain Horse Softball Diamond,sports field,ab,49.68524535,-112.8922303
Mill Creek,sports field,ab,53.51530331,-113.4799756
Mill Woods Community Artificial Turf - Staffed Field,sports field,ab,53.457384,-113.4386662
Mill Woods Golf Course,sports field,ab,53.48233764,-113.4179693
Mill Woods Tennis Courts,sports field,ab,53.4585436,-113.4446738
Millenium Park,sports field,ab,51.08126373,-115.3562913
Millennium Outdoor Soccer Park,sports field,ab,53.55890424,-113.3092176
Miller,sports field,ab,53.61397908,-113.415315
Millwoods Golf Course,sports field,ab,53.48173914,-113.4342353
Millwoods Pk,sports field,ab,53.45750681,-113.4410301
Minchau,sports field,ab,53.46821901,-113.4069678
Mini Links Mini Golf,sports field,ab,55.13623931,-118.7924981
Ministik School,sports field,ab,53.39730603,-113.0130315
Mitford Pond,sports field,ab,51.189766,-114.491272
Montrose,sports field,ab,53.57259319,-113.4342185
Mother Theresa,sports field,ab,53.55226967,-113.4771336
Mount Carmel,sports field,ab,53.51293787,-113.5036049
Mount Pleasant,sports field,ab,53.49496493,-113.5013293
Multi Use Field,sports field,ab,50.97445659,-114.0650216
New Horizons School,sports field,ab,53.52021098,-113.3205002
Newton,sports field,ab,53.57650662,-113.4277745
Nicholas Sheran Lake,miscellaneous,ab,49.67055878,-112.880507
Nicholas Sheran Park Disc Golf Course,sports field,ab,49.66924439,-112.8832098
Nicholas Sheran Picnic Shelter,miscellaneous,ab,49.66906589,-112.8804545
Nicholas Sheran School Diamonds,sports field,ab,49.67422187,-112.8775924
Nicholas Sheran School Soccer Field,sports field,ab,49.67380118,-112.8790534
Nine Of Diamonds,miscellaneous,ab,55.13624579,-118.7938081
Norbridge Park Basketball Court,sports field,ab,49.7156941,-112.8202901
North Mount Pleasant Arts Centre,miscellaneous,ab,51.07672742,-114.0727255
Northern Bear Golf Club Resort,sports field,ab,53.37409523,-113.139438
Northmount,sports field,ab,53.60380875,-113.4778631
Nor'Wester Athletic Association,sports field,ab,53.42658888,-113.4122338
Norwood,sports field,ab,53.56080418,-113.4877495
Nottingham Park,sports field,ab,53.52301686,-113.2781018
Ogilvie,sports field,ab,53.46359773,-113.5611198
Old Scona,sports field,ab,53.51982091,-113.5024297
Oldman River,miscellaneous,ab,49.68583775,-112.8564296
Oleskiw,sports field,ab,53.49821788,-113.604893
Oliver,sports field,ab,53.5443047,-113.5233601
Ormsby Place,sports field,ab,53.49892259,-113.6375059
Ottewell,sports field,ab,53.5311589,-113.43839
Ottewell Curling Club & Golf Driving Range,sports field,ab,53.54474305,-113.4118481
Our Lady Prair,sports field,ab,53.49944687,-113.6271708
Overlander,sports field,ab,53.58221049,-113.3889284
Oxford Pk,sports field,ab,53.61875335,-113.5443662
Ozerna,sports field,ab,53.62128347,-113.4497711
Paradise Canyon Golf And Country Club,sports field,ab,49.64999757,-112.8295506
Park Meadows School Diamonds,sports field,ab,49.72265549,-112.8093251
Park Meadows School Soccer Fields,sports field,ab,49.72333964,-112.8077828
Partridge Hill Community Hall,sports field,ab,53.65853377,-113.0996647
Pat Heights,sports field,ab,53.51159803,-113.6021073
Peacock Park,sports field,ab,53.52615807,-113.2862072
Pine Street Elementary School,sports field,ab,53.5206545,-113.3013016
Pkallen,sports field,ab,53.50451446,-113.5180546
Pkdale,sports field,ab,53.56877186,-113.4726215
Pkview,sports field,ab,53.52584042,-113.5677351
Pleasantview,sports field,ab,53.49520094,-113.5094395
Pollard Meadows,sports field,ab,53.44862508,-113.4109248
Polo Field,sports field,ab,50.97688804,-114.132923
Potter Greens,sports field,ab,53.51711657,-113.6769809
Primrose,sports field,ab,53.51678671,-113.6480361
Prince Charles,sports field,ab,53.57835676,-113.538014
Prince Rupert,sports field,ab,53.56192337,-113.5206859
Princeton,sports field,ab,53.59109972,-113.4585309
Public Baseball Venue,sports field,ab,55.1973515,-118.7715082
Queen Alexandra,sports field,ab,53.51409012,-113.5052572
Queen Elizabeth,sports field,ab,53.59085201,-113.4846514
Queen Elizabeth Tennis Courts,sports field,ab,53.59214566,-113.4884169
Queen Mary Pk,sports field,ab,53.55652957,-113.5146746
Queensland / Diamond Cove Community Centre,sports field,ab,50.93960081,-114.0216631
Ramsey Heights,sports field,ab,53.48280686,-113.5797714
Recreation Center,sports field,ab,51.0993103,-115.36575
Red Deer Golf & Country Club Trail,sports field,ab,52.2671873,-113.8377897
Red Deer Tennis Club,sports field,ab,52.26409575,-113.80661
Redwood Park Bocce Ball Courts,sports field,ab,49.67427744,-112.7906281
Redwood Park Soccer Fields,sports field,ab,49.67429843,-112.7878622
Repsol Sport Centre,community centre,ab,51.03457685,-114.0633443
Richard Secord,sports field,ab,53.47702939,-113.5334349
Rideau Park Basketball Court,sports field,ab,49.71070466,-112.8108992
Rideau Pk,sports field,ab,53.47774325,-113.5047339
Rio Terrace,sports field,ab,53.50914514,-113.586506
Ritchie,sports field,ab,53.51031939,-113.4799896
River Valley,sports field,ab,53.53329509,-113.4939924
Riverbend,sports field,ab,53.49240602,-113.5758494
Riverbend Tennis Club,sports field,ab,53.49045989,-113.5756333
Riverdale,sports field,ab,53.54357505,-113.4668951
Riverside Golf Course,sports field,ab,53.549417,-113.4648602
Riverside Golf Course Ski Trails,trail,ab,53.549387,-113.4593216
Rj Scott,sports field,ab,53.56929285,-113.4015001
Rollie Miles,sports field,ab,53.51063253,-113.4990545
Rollie Miles Athletic Park - Staffed Field,sports field,ab,53.5108634,-113.5015269
Rosslyn,sports field,ab,53.59383719,-113.5133073
Rotary Campsite,miscellaneous,ab,55.17993549,-118.8188112
Rotary Park,sports field,ab,51.18312758,-114.489895
Rotary Park At Trillium Centre,sports field,ab,53.55097276,-113.2713344
Rotary Park Soccer/Irrigation,sports field,ab,55.16868437,-118.7774083
Rotary Picnic Shelter,miscellaneous,ab,49.73346355,-112.798904
Rotary Recreation Area Tennis Building,sports field,ab,52.26409575,-113.80661
Rotary Soccer Field,sports field,ab,55.1681463,-118.7777237
Rugby,sports field,ab,51.15303076,-114.1856788
Rundle Golf Course,sports field,ab,53.57011,-113.378693
Rundle Heights,sports field,ab,53.56395231,-113.390044
Rundle Park Golf Course,sports field,ab,53.57209509,-113.390031
Rundle Pk,sports field,ab,53.55868165,-113.3822716
Rutgers Park Diamond,sports field,ab,49.67192178,-112.8914875
Rutgers Park Soccer Fields,sports field,ab,49.67214974,-112.8922338
Rutherford,sports field,ab,53.5227412,-113.4695608
S Bruce Smith,sports field,ab,53.49077864,-113.6373962
Sacred Heart,sports field,ab,53.55451733,-113.4863276
Sakaw,sports field,ab,53.44519258,-113.4293827
Salisbury Athletic Park,sports field,ab,53.52484231,-113.3027061
Sam Serbu Field (Lakeview Centre Diamond),sports field,ab,49.67777979,-112.7951088
Satoo,sports field,ab,53.44693301,-113.4573484
Scenic Drive Dog Run,park,ab,49.68071216,-112.8402699
Scenic Heights Basketball Court (Lower),sports field,ab,49.67539251,-112.8277851
Scenic Heights Basketball Court (Upper),sports field,ab,49.67533237,-112.8273959
Scott Robertson,sports field,ab,53.59605035,-113.503999
Senator Buchanan Diamonds,sports field,ab,49.71087971,-112.8323909
Senator Buchanan Soccer Fields,sports field,ab,49.70978127,-112.8322897
Senator Buchanan Volleyball Court,sports field,ab,49.71012842,-112.8317999
Shaganappi Golf Course,sports field,ab,51.04550081,-114.1247786
Shamrock Curling Club,rink,ab,53.51813231,-113.4708237
Shane Homes Ymca At Rocky Ridge,miscellaneous,ab,51.15715638,-114.2314983
Sherbrooke,sports field,ab,53.57562697,-113.5487767
Sheridan Park Basketball Court,sports field,ab,49.66343551,-112.8836906
Sheridan Park Diamond,sports field,ab,49.6637655,-112.8845766
Sherwood,sports field,ab,53.53258744,-113.5836774
Shouldice Aquatic Centre,pool,ab,51.07708473,-114.172003
Shuffleboard,sports field,ab,50.91364904,-113.9615431
Sifton,sports field,ab,53.59581899,-113.4101941
Silver Berry,sports field,ab,53.45822313,-113.3862395
Silverwing Links,sports field,ab,51.10063054,-113.9905448
Skyrattler,sports field,ab,53.45159803,-113.5214735
Soccer,sports field,ab,51.13116751,-114.2391628
Soccer Centre S,sports field,ab,53.49755636,-113.4316169
Soccer Field,sports field,ab,55.14267486,-118.8181904
Softball Valley,sports field,ab,49.7188351,-112.8532319
South Cooking Lake Community Hall,sports field,ab,53.41089926,-113.1173968
Southland Leisure Centre,community centre,ab,50.96228876,-114.1085206
Spray Lakes Indoor,sports field,ab,51.17460757,-114.4521429
Spruce Avenue,sports field,ab,53.56479671,-113.4975063
St Alphonsus,sports field,ab,53.56874904,-113.4657152
St Andrew,sports field,ab,53.5627284,-113.5421064
St Angela,sports field,ab,53.59625672,-113.5516943
St Anne,sports field,ab,53.60367775,-113.4836302
St Augustine,sports field,ab,53.47266527,-113.5085127
St Basil,sports field,ab,53.56748107,-113.4970085
St Benedict,sports field,ab,53.52574058,-113.6342646
St Bernadette,sports field,ab,53.57336649,-113.4016623
St Bernard,sports field,ab,53.53432802,-113.4397036
St Bonaventure,sports field,ab,53.60432458,-113.3884878
St Boniface,sports field,ab,53.47797536,-113.5370278
St Brendan,sports field,ab,53.5294239,-113.4241222
St Brides,sports field,ab,53.54688735,-113.4438889
St Cecilia,sports field,ab,53.59329627,-113.4782827
St Charles,sports field,ab,53.6324808,-113.5022656
St Clement,sports field,ab,53.44651703,-113.4469921
St Dominic,sports field,ab,53.60726473,-113.4326628
St Edmund,sports field,ab,53.59027349,-113.5265302
St Elizabeth,sports field,ab,53.46945417,-113.4511517
St Francis X,sports field,ab,53.52983307,-113.6042068
St Francisa,sports field,ab,53.58990753,-113.4447844
St Gabriel Sch,sports field,ab,53.55157021,-113.4229581
St Gerard,sports field,ab,53.58134026,-113.4693379
St Hilda,sports field,ab,53.47418808,-113.4527406
St James,sports field,ab,53.51453081,-113.4562967
St Jerome,sports field,ab,53.56153799,-113.3917119
St Joseph,sports field,ab,53.55573159,-113.5089516
St Justin,sports field,ab,53.51772007,-113.6210845
St Kevin,sports field,ab,53.53920596,-113.4550952
St Leo,sports field,ab,53.57659682,-113.4260522
St Lucy,sports field,ab,53.62463533,-113.5278771
St Mark,sports field,ab,53.56821271,-113.5532969
St Martha,sports field,ab,53.50665371,-113.6370306
St Martin,sports field,ab,53.48961757,-113.5231386
St Mary,sports field,ab,53.47540273,-113.586433
St Marys School Fields,sports field,ab,49.69466902,-112.8142614
St Matthew,sports field,ab,53.59091409,-113.4748009
St Monica,sports field,ab,53.49145538,-113.5732969
St Nicholas,sports field,ab,53.56696051,-113.3966316
St Patrick,sports field,ab,53.57457137,-113.4896672
St Patrick School Mini Soccer Field,sports field,ab,49.66216104,-112.8655529
St Paul,sports field,ab,53.53343339,-113.5721595
St Paul School Mini Soccer Fields,sports field,ab,49.71455658,-112.8284311
St Peter,sports field,ab,53.51071439,-113.5244616
St Philip,sports field,ab,53.60824301,-113.4754489
St Richard,sports field,ab,53.44724775,-113.4273492
St Rose,sports field,ab,53.52120478,-113.5684635
St Stanislaus,sports field,ab,53.47548611,-113.5235974
St Teresa School Ball Diamond,sports field,ab,49.73441682,-112.8311238
St Theresa,sports field,ab,53.45892291,-113.5290308
St Thomas More,sports field,ab,53.53440098,-113.6084647
St Vladimir,sports field,ab,53.59374232,-113.4557687
St William,sports field,ab,53.59822116,-113.4332967
St. Basils School Diamond,sports field,ab,49.70769718,-112.8280953
St. Basils School Mini Soccer,sports field,ab,49.70841066,-112.8280551
St. Kateri,sports field,ab,53.47630647,-113.4024157
St. Luke Catholic School,sports field,ab,53.41474279,-113.1279994
St. Patrick School Diamond,sports field,ab,49.66243422,-112.8644987
St. Theresa Catholic School,sports field,ab,53.5293258,-113.2977163
Staffordville Basketball Court,sports field,ab,49.71135695,-112.8316788
Steele Heights,sports field,ab,53.60947662,-113.4280402
Steinhauer,sports field,ab,53.46455198,-113.5075751
Stratford,sports field,ab,53.52104407,-113.5835594
Strathcona Station Park,sports field,ab,53.54524144,-113.3008201
Strathearn,sports field,ab,53.53153333,-113.4636108
Summerlea,sports field,ab,53.52755644,-113.6247706
Summerside,sports field,ab,53.42009381,-113.4628948
Sweetgrass,sports field,ab,53.46263197,-113.5264593
Talmud Torah,sports field,ab,53.4991684,-113.6214331
Ted Petrunia Bowling Green,sports field,ab,49.7195801,-112.8199509
Tennis,sports field,ab,51.10473362,-114.1567872
Tennis Court,sports field,ab,55.16279355,-118.7959737
Terrace Heights,sports field,ab,53.53927022,-113.4340851
Terw,sports field,ab,53.44933891,-113.5846441
Tevie Miller,sports field,ab,53.50039628,-113.5261449
The Sugar Bowl,miscellaneous,ab,49.67283623,-112.8158725
The Winston Golf Club,sports field,ab,51.07549628,-114.04279
Thistle Curling Rink,rink,ab,53.56352939,-113.4430431
Thorncliffe,sports field,ab,53.51674077,-113.6190946
Tipaskan,sports field,ab,53.46280389,-113.4563515
Toboggan Hill,miscellaneous,ab,51.10395761,-113.9733671
Track And Field,sports field,ab,51.07292901,-114.122104
Trico Centre For Family Wellness,community centre,ab,50.95224606,-114.0589465
Tsmv,sports field,ab,51.05054263,-115.3169359
Twin Brooks,sports field,ab,53.441401,-113.52692
Twin Pks,sports field,ab,53.50163342,-113.3680774
Ultimate Frisbee,sports field,ab,51.14023665,-114.0566706
University Of Lethbridge Track,sports field,ab,49.6683542,-112.8654501
Valley Ridge Golf Course,sports field,ab,51.09917215,-114.2527249
Valley Zoo,miscellaneous,ab,53.51240754,-113.5558644
Vecova Centre For Disability Services And Research,community centre,ab,51.08220758,-114.1325572
Velma E Baker,sports field,ab,53.48130705,-113.3841853
Velodrome,miscellaneous,ab,51.00571461,-114.1031625
Vernon Barford,sports field,ab,53.47423219,-113.5390727
Victoria Golf Course,sports field,ab,53.53883,-113.528711
Victoria Hs,sports field,ab,53.55586617,-113.4978647
Victoria Park Golf Course,sports field,ab,53.53255127,-113.5370986
Victoria Soccer Club,sports field,ab,53.5990012,-113.5680052
Victoria Tennis Courts,sports field,ab,53.55148806,-113.499968
Village On The Lake Sports Grounds,sports field,ab,53.51907945,-113.3209115
Village Square Leisure Centre,community centre,ab,51.07601411,-113.9544375
Virginia Pk,sports field,ab,53.56103671,-113.4495815
Vivo For Healthier Generations,community centre,ab,51.15951899,-114.0655471
Volleyball,sports field,ab,51.13765954,-114.2389784
Watermark Ball Diamond,sports field,ab,49.65414097,-112.880305
Watermark Basketball Court,sports field,ab,49.65272117,-112.8798179
Watermark North Soccer Field,sports field,ab,49.65305981,-112.8810718
Watermark Pump Track,sports field,ab,49.65209264,-112.8799823
Watermark School South Soccer Field,sports field,ab,49.65237162,-112.8809905
Waverly,sports field,ab,53.52332745,-113.4331432
Wedgewood Hghts,sports field,ab,53.48140061,-113.6440488
Wee Links Pitch And Put,sports field,ab,55.13701136,-118.7916856
Weinlos,sports field,ab,53.46029593,-113.4133072
Wellington,sports field,ab,53.5920176,-113.5430886
Wes Hosford Elementary School,sports field,ab,53.53006033,-113.2844608
West Highlands Picnic Area,miscellaneous,ab,49.69315875,-112.9008066
West Rock,sports field,ab,51.1868291,-114.486982
West Terrace,sports field,ab,51.19559317,-114.5023138
Westboro Elementary School,sports field,ab,53.52610473,-113.321871
Westbrook,sports field,ab,53.47468773,-113.540947
Westglen,sports field,ab,53.55454012,-113.5435807
Westlawn,sports field,ab,53.53358917,-113.608804
Westminister,sports field,ab,53.54759606,-113.5582443
Westminster School Diamonds,sports field,ab,49.70408544,-112.8184357
Westminster School Soccer Field,sports field,ab,49.7041095,-112.817756
Westminster Tennis Courts (2),sports field,ab,49.70538585,-112.8174933
Westmount,sports field,ab,53.56139147,-113.5470651
Westridge,sports field,ab,53.50679683,-113.6024066
Westridge Wolf Willow Community League Hall And Tennis Club,sports field,ab,53.50708546,-113.604876
Whitecroft Community Hall,sports field,ab,53.50119494,-113.2910879
Wilson Middle School Diamonds,sports field,ab,49.71313002,-112.810406
Wilson Middle School Soccer Fields,sports field,ab,49.71426993,-112.8109794
Windsor Pk,sports field,ab,53.52464594,-113.5357153
Winsport,sports field,ab,51.08448299,-114.2208882
Winston Churchill Basketball Court,sports field,ab,49.71992651,-112.8136797
Winston Churchill Diamond,sports field,ab,49.72063093,-112.8164989
Winston Churchill East Fields,sports field,ab,49.71982531,-112.8152811
Winston Churchill Football Field,sports field,ab,49.71985037,-112.8185168
Winston Churchill School Soccer Fields,sports field,ab,49.7200002,-112.8175998
Winterburn,sports field,ab,53.53515228,-113.686388
Woodbridge Farms Elementary School,sports field,ab,53.53027282,-113.3256599
Woodcroft,sports field,ab,53.56723293,-113.5603367
Wp Wagner,sports field,ab,53.49817046,-113.4543641
Wye Elementary School,sports field,ab,53.51548182,-113.2390377
York Pk,sports field,ab,53.60110398,-113.4337456
Youngstown,sports field,ab,53.54620577,-113.6043169
Ypres Valley Park,sports field,ab,53.61437632,-113.0488707
(Not Specified),trail,ab,49.69478679,-112.9082956
1 Ave N 14 St N To Mm Drive - Grnspc_655,trail,ab,49.69873765,-112.8180164
1 Ave S At Brewery Gardens - Grnspc_9609,trail,ab,49.69733634,-112.8523848
13 St N - West Buffer 2 - Grnspc_1824,trail,ab,49.73470764,-112.8241359
13 St N - West Buffer 3 - Grnspc_1855,trail,ab,49.73644685,-112.8240883
13 St N 44 Ave N To Pavan Park Entrance - Grnspc_628,trail,ab,49.7467777,-112.8240439
20 Ave Greenstrip - Grnspc_591,trail,ab,49.67258611,-112.8102061
23 St N 2 Ave N To 3 Ave N Eastside Area 2 - Grnspc_520,trail,ab,49.70250863,-112.8106348
23 St N 2 Ave N To 3 Ave N Westside Area 1 - Grnspc_537,trail,ab,49.70337045,-112.8101816
23 St N 2 Ave N To 3 Ave N Westside Area 2 - Grnspc_1168,trail,ab,49.70301949,-112.8107049
23 St N 3 Ave N To 5 Ave N Eastside - Grnspc_4331,trail,ab,49.70441064,-112.8085215
26 Ave N 13 St N To 18 St N - Grnspc_1830,trail,ab,49.72714031,-112.8189978
26 Ave N 18 St N To 23 St N - Grnspc_1179,trail,ab,49.72708712,-112.8124319
26 Ave N 23 St N To 28 St N Southside - Grnspc_1180,trail,ab,49.72706696,-112.8059611
26 Ave N Erminedale Blvd To Bluefox Blvd - Grnspc_1173,trail,ab,49.727437,-112.814199
26 Ave N Northside - Area 1 - Grnspc_1175,trail,ab,49.72748203,-112.8054814
28 St N 14 Ave N To 18 Ave N - Eastside - Grnspc_800,trail,ab,49.71879192,-112.8012015
28 St N 18 Ave N To 26 Ave N - Eastside - Grnspc_1216,trail,ab,49.72485695,-112.8009809
28 St N 18 Ave N To 26 Ave N - Westside - Grnspc_427,trail,ab,49.72699709,-112.8016739
28 St N 5 Ave N To 7 Ave N Eastside - Grnspc_526,trail,ab,49.70774181,-112.8006572
28 St N 7 Ave N To 9 Ave N Eastside - Grnspc_518,trail,ab,49.71199149,-112.8003733
28 St N And 26 Ave N - Area 1 - Grnspc_1270,trail,ab,49.72737644,-112.7982254
28 St N And 26 Ave N - Area 2 - Grnspc_1268,trail,ab,49.72745507,-112.8009099
28 St N And 26 Ave N - Area 2 - Grnspc_1272,trail,ab,49.72736271,-112.7960722
28 St N At 12 Ave N - Eastside Area 1 - Grnspc_515,trail,ab,49.71660042,-112.801226
28 St N At 18 Ave N - Southside - Grnspc_512,trail,ab,49.72139308,-112.8010653
28 St N Between 26 Ave N & 30 Ave N Eastside - Blvd 1 - Grnspc_1264,trail,ab,49.72792186,-112.8008231
28 St N Between 26 Ave N & 30 Ave N Eastside - Blvd 2 - Grnspc_1258,trail,ab,49.72957088,-112.8008163
28 St N Eastside Between 30 Ave N & 35 Ave N - Grnspc_1320,trail,ab,49.73313449,-112.8007496
28 St N Westside - Blvd 1 - Grnspc_1125,trail,ab,49.7065024,-112.8017468
28 St N Westside - Blvd 4 - Grnspc_1131,trail,ab,49.71473107,-112.8016431
28 St N Westside - Blvd 6 - Grnspc_1132,trail,ab,49.71759156,-112.8016101
28 St N Westside - Blvd 7 - Grnspc_1133,trail,ab,49.72028508,-112.8016144
28 St S Walkway North - Grnspc_5541,trail,ab,49.6594114,-112.8013221
30 Ave N Southside Blvd 1 - Grnspc_1111,trail,ab,49.73026195,-112.7994322
30 St N Southside - Blvd 2 - Grnspc_1117,trail,ab,49.73024731,-112.7955811
36 St N Eastside Blvd 1 - Grnspc_1107,trail,ab,49.73240963,-112.7888723
40 Ave S - Blvd 1 - Grnspc_1090,trail,ab,49.65554807,-112.7972483
43 St N And 5 Ave N Area 2 - Grnspc_410,trail,ab,49.70394336,-112.7794562
43 St N And 5 Ave N Area 5 - Grnspc_409,trail,ab,49.70713711,-112.7793113
43 St N And 6 Ave N Area 4 - Grnspc_866,trail,ab,49.71066176,-112.779274
43 St N And 9 Ave N Area 5 - Grnspc_794,trail,ab,49.71298881,-112.7792869
5 Ave N 23 St N To 26 St N - Northside - Grnspc_527,trail,ab,49.70583549,-112.8064996
5 Ave N 26 St N To 28 St N - Grnspc_1135,trail,ab,49.70585206,-112.8030724
Aca Trails,trail,ab,51.09543083,-115.3366955
Adams Park - Grnspc_1165,trail,ab,49.71114656,-112.823236
Alexander Wilderness Park - Grnspc_924,trail,ab,49.73907603,-112.8630928
Algonquin Park - Grnspc_191,trail,ab,49.68203069,-112.8846827
Aquitania Blvd W - East Buffer 1 - Grnspc_3800,trail,ab,49.6729441,-112.9015631
Aquitania Blvd W - East Buffer 2 - Grnspc_3757,trail,ab,49.67419642,-112.9027041
Aquitania Blvd W - West Buffer 1 - Grnspc_3799,trail,ab,49.67267392,-112.9018038
Aquitania Blvd W - West Buffer 3 - Grnspc_3764,trail,ab,49.6756588,-112.9046247
Arbourwood Island - Grnspc_2622,trail,ab,49.64971715,-112.7901033
Arbourwood Walkway - West - Grnspc_2484,trail,ab,49.6493392,-112.7916409
Ardrossan,trail,ab,53.55029258,-113.1383651
Assiniboia Park - Grnspc_359,trail,ab,49.68106602,-112.8906857
Atb Centre (Facility),trail,ab,49.6701468,-112.914427
Atso Towaawa Park - Grnspc_361,trail,ab,49.68423837,-112.8892436
Benton Buffer - Simon Fraser Blvd To Temple Blvd - Grnspc_170,trail,ab,49.66883687,-112.89244
Blackfoot Circle Walkway - Grnspc_160,trail,ab,49.6820491,-112.9007889
Blackfoot Park - Grnspc_190,trail,ab,49.68093022,-112.9002843
Blackwolf Park - Grnspc_923,trail,ab,49.73388204,-112.8098632
Bluefox Blvd At 26 Ave N - Eastside - Grnspc_1174,trail,ab,49.72746841,-112.8098674
Bluefox Park - Grnspc_259,trail,ab,49.72973998,-112.8200785
Botterill Bottom Island - Grnspc_317,trail,ab,49.68164289,-112.854122
Botterill Bottom Park - Grnspc_921,trail,ab,49.68498081,-112.8378733
Bow Valley Trail Cpr Corridor,trail,ab,51.0925777,-115.3531704
Bridge Drive - Area 1 - Grnspc_919,trail,ab,49.70198921,-112.8824283
Britannia Blvd W - South Buffer 2 - Grnspc_3777,trail,ab,49.67284342,-112.9099606
Britannia Blvd W - South Buffer 3 - Grnspc_3773,trail,ab,49.67415465,-112.9073961
Britannia Blvd W - South Buffer 4 - Grnspc_3947,trail,ab,49.67505307,-112.9050854
Bull Trail Park - North - Grnspc_899,trail,ab,49.68270375,-112.8787156
Bull Trail Park - South - Grnspc_269,trail,ab,49.68454743,-112.8621141
Caledonia - Atlantic Walkway - Grnspc_9601,trail,ab,49.67815992,-112.9059989
Caledonia - Devonia Walkway - Grnspc_5950,trail,ab,49.67796072,-112.9067907
Caledonia Blvd W - Buffer 2 - Grnspc_9599,trail,ab,49.67818856,-112.9044821
Canyon Close Park - Grnspc_179,trail,ab,49.65012355,-112.8375294
Canyon Cove W - Walkway - Grnspc_933,trail,ab,49.65581088,-112.843771
Canyon Estates - Walkway - Grnspc_3873,trail,ab,49.65371514,-112.8518681
Canyon Meadows Park - Stage 1 - Grnspc_9584,trail,ab,49.65701818,-112.8509177
Canyon Parkway - Blvd 5 - Grnspc_5140,trail,ab,49.65425395,-112.8552235
Canyon Parkway - Blvd 7 - Grnspc_5142,trail,ab,49.65195819,-112.8584824
Canyoncrest Court W - Walkway - Grnspc_835,trail,ab,49.6546865,-112.8433723
Canyoncrest Park - Grnspc_932,trail,ab,49.65483657,-112.8463653
Canyoncrest Point W - Walkway 1 - Grnspc_1033,trail,ab,49.65650984,-112.8427415
Canyoncrest Point W - Walkway 3 - Grnspc_903,trail,ab,49.65254391,-112.8458437
Canyons Park - Grnspc_3868,trail,ab,49.65246785,-112.8518079
Canyonview Place W - Walkway 1 - Grnspc_3871,trail,ab,49.65208473,-112.8482532
Canyonview Place W - Walkway 2 - Grnspc_3870,trail,ab,49.65211819,-112.8472842
Canyonview Place W - Walkway 3 - Grnspc_3872,trail,ab,49.65122825,-112.8473741
Catholic Central High School - West Campus - Grnspc_1374,trail,ab,49.67535091,-112.9074965
Cayuga Walkway - Grnspc_307,trail,ab,49.68249421,-112.8862514
Cedar Park - Grnspc_273,trail,ab,49.67833792,-112.7852905
Central Station Park - Grnspc_9618,trail,ab,49.68676359,-112.9083533
Chilcotin Walkway - Grnspc_212,trail,ab,49.68323602,-112.8964144
Children Of St. Martha School - Grnspc_163,trail,ab,49.67409379,-112.8851008
Chinook Heights Walkway - Grnspc_708,trail,ab,49.66930749,-112.8169237
Chinook High School - Grnspc_3729,trail,ab,49.67397242,-112.9113318
Chinook Lake Park - Grnspc_893,trail,ab,49.73197663,-112.80938
Chinook Tourist Park - Grnspc_727,trail,ab,49.67028996,-112.7997998
Chippewa Walkway - Grnspc_297,trail,ab,49.68204997,-112.8818222
Coachwood Park - Grnspc_194,trail,ab,49.68948025,-112.8795039
Coachwood Walkway - Grnspc_296,trail,ab,49.68858728,-112.8819308
Coalbanks Gate W - Blvd 2 - Grnspc_1089,trail,ab,49.6701644,-112.9042371
Coalbanks Link Buffer 1 - Grnspc_9578,trail,ab,49.67081376,-112.8966049
Coalbanks Park - Grnspc_944,trail,ab,49.66765053,-112.9015924
Coalbanks School - Grnspc_7147,trail,ab,49.66512014,-112.9061085
Columbia Park - Grnspc_187,trail,ab,49.668095,-112.8871937
Columbia Place Walkway - Grnspc_213,trail,ab,49.66716292,-112.8859467
Cottonwood Park - Grnspc_926,trail,ab,49.63915402,-112.8886012
Cougar Creek Commuter,trail,ab,51.08743236,-115.3402847
Cougar Park - Grnspc_1802,trail,ab,49.73344978,-112.8194851
Couleecreek Park - Grnspc_938,trail,ab,49.65900104,-112.7837253
Country Meadows Entrance Pul - Grnspc_5943,trail,ab,49.69574752,-112.9094174
Cowichan Court Walkway - Grnspc_192,trail,ab,49.68241883,-112.9008131
Crossings Park - Grnspc_1376,trail,ab,49.67526546,-112.9089253
Crossings Wet Pond - Grnspc_3790,trail,ab,49.67579253,-112.9041327
Crowsnest Trail & Bridge Drive - South Buffer 2 - Grnspc_769,trail,ab,49.70745785,-112.863753
Crowsnest Trail And Mm Drive Area 2 - Grnspc_783,trail,ab,49.69916834,-112.8113169
Crowsnest Trail And Mm Drive Area 4 - Grnspc_534,trail,ab,49.69749447,-112.8112462
Crowsnest Trail And Mm Drive Area 5 - Grnspc_659,trail,ab,49.69590312,-112.8110999
Crowsnest Trail And Scenic Drive - Area 5 - Grnspc_773,trail,ab,49.70124416,-112.8468036
Crowsnest Trail And Scenic Drive Area 6 - Grnspc_382,trail,ab,49.70243286,-112.8464027
Dalhousie Carlton Walkway - Grnspc_1402,trail,ab,49.67299794,-112.8728616
Dalhousie Park - Grnspc_186,trail,ab,49.6695782,-112.8701607
Dave Elton Park - Grnspc_257,trail,ab,49.70950334,-112.8378216
Demonstration Gardens - Grnspc_770,trail,ab,49.69001676,-112.8038041
Dieppe Blvd 1 - Grnspc_87,trail,ab,49.69275458,-112.8002022
Dominion Park - Grnspc_244,trail,ab,49.72388617,-112.8220113
East Slopes - Grnspc_922,trail,ab,49.67232371,-112.8171092
Edgewood Park - East - Grnspc_158,trail,ab,49.69021742,-112.8811289
Edgewood Park - West - Grnspc_214,trail,ab,49.69047363,-112.8848785
Elizabeth Hall Wetlands - Grnspc_840,trail,ab,49.70566642,-112.8695305
Elizabeth Mckillop Park - Grnspc_935,trail,ab,49.72968892,-112.827677
Elma Groves Park - Grnspc_934,trail,ab,49.72898085,-112.8312424
Ermineview Park - Grnspc_252,trail,ab,49.73125734,-112.814544
Fairmont Blvd East - Grnspc_52,trail,ab,49.66768088,-112.7848288
Fairmont Blvd West - Grnspc_51,trail,ab,49.66686689,-112.7872715
Fairmont Garden Park - Grnspc_228,trail,ab,49.66241652,-112.7814113
Fairmont Park - Grnspc_289,trail,ab,49.66592891,-112.7887107
Father Leonard Van Tighem School - Grnspc_294,trail,ab,49.68895122,-112.8889204
Firelight Park - Grnspc_945,trail,ab,49.66838978,-112.8944581
Firelight Point Walkway - Grnspc_3661,trail,ab,49.67066231,-112.8957394
Firelight Walkway - Grnspc_3659,trail,ab,49.66828212,-112.8932993
Fleetwood Bawden School - Grnspc_198,trail,ab,49.685578,-112.825014
Galt Gardens - Grnspc_287,trail,ab,49.69745586,-112.8398227
Garry Drive - Buffer 10 - Grnspc_9607,trail,ab,49.69023475,-112.9096729
Garry Drive - Buffer 4 - Grnspc_618,trail,ab,49.6914519,-112.8909701
Garry Drive - Buffer 7 - Grnspc_871,trail,ab,49.69074944,-112.8959731
Garry Drive - Buffer 8 - Grnspc_9605,trail,ab,49.69131163,-112.9002061
Garry Station Entrance Blvd 1 - Grnspc_7552,trail,ab,49.68878682,-112.9137152
Georgetown Park - Grnspc_250,trail,ab,49.7410754,-112.8289169
Gerald Probe School - Grnspc_266,trail,ab,49.65848665,-112.8746128
Giffen Rd N Southside - Buffer 2 - Grnspc_1114,trail,ab,49.73461397,-112.7975924
Grand River Park - Grnspc_506,trail,ab,49.66150899,-112.8695491
Grand River Walkway - North - Grnspc_999,trail,ab,49.65967882,-112.869351
Grand River Walkway - South - Grnspc_1000,trail,ab,49.65900057,-112.8692945
Greywolf Walkway - Grnspc_9587,trail,ab,49.74046881,-112.8115345
Gyro Park - Grnspc_200,trail,ab,49.68253294,-112.8212944
Henderson Athletic Park - Grnspc_3082,trail,ab,49.69076204,-112.8037959
Henderson Park - Grnspc_679,trail,ab,49.6869933,-112.8035913
Heritage Boulevard Walkway - Grnspc_157,trail,ab,49.695669,-112.8789031
Heritage Circle Park - Grnspc_156,trail,ab,49.69453821,-112.8809125
Heritage Circle Walkway - Grnspc_298,trail,ab,49.69539351,-112.8802156
Heritage Close - East Walkway - Grnspc_196,trail,ab,49.69165014,-112.8847855
Heritage Close Park - Grnspc_195,trail,ab,49.69233901,-112.8861484
Heritage Court Park - Grnspc_292,trail,ab,49.69492279,-112.8917089
Heritage Crescent Walkway - Grnspc_3688,trail,ab,49.69518355,-112.8877674
Heritage Place Park - East - Grnspc_872,trail,ab,49.69173144,-112.877903
Heritage Place Park - West - Grnspc_293,trail,ab,49.69226838,-112.8840405
Heritage Point - Grnspc_282,trail,ab,49.69577179,-112.8769189
Heritage Point Walkway - Grnspc_900,trail,ab,49.69546217,-112.8751979
Heritage Rd W Walkway - Grnspc_3689,trail,ab,49.69512758,-112.887177
Heritage Road Park - Grnspc_262,trail,ab,49.69493165,-112.8852179
Highlands Park - Grnspc_868,trail,ab,49.69307827,-112.8960205
Indian Battle Park - Grnspc_756,trail,ab,49.69131859,-112.8587591
Iroquois Park - Grnspc_360,trail,ab,49.68218545,-112.8890009
Iroquois Walkway - Grnspc_308,trail,ab,49.68458677,-112.887536
Jane Stafford Walkway - Grnspc_936,trail,ab,49.73105926,-112.8295131
Jane Stafford Walkway Extension - Grnspc_3928,trail,ab,49.73156964,-112.8351005
Jerry Potts Blvd W - Buffer 2 - Grnspc_9569,trail,ab,49.68626557,-112.9010175
Jessie Robinson Walkway - Grnspc_1151,trail,ab,49.7296423,-112.8323972
Jock Palmer Park - Grnspc_254,trail,ab,49.70809122,-112.8081223
Joe Meszaros Park - Grnspc_9622,trail,ab,49.69359198,-112.907297
Josephburg,trail,ab,53.71333348,-113.0725571
Keystone Park - Grnspc_3810,trail,ab,49.66677749,-112.9087098
Kings Park - Grnspc_206,trail,ab,49.66643504,-112.8175643
Kings Point - Grnspc_887,trail,ab,49.66352158,-112.8176194
Kings Walkway - Grnspc_2638,trail,ab,49.66386189,-112.813608
Kinsmen Park - Grnspc_199,trail,ab,49.68669835,-112.8306127
Kiwanis Park - Grnspc_201,trail,ab,49.68809759,-112.8408731
Kodiak Park - Grnspc_928,trail,ab,49.73283112,-112.8038624
Labor Club Park - Grnspc_633,trail,ab,49.71747954,-112.8032398
Lafayette Park - Grnspc_164,trail,ab,49.6766781,-112.8772738
Lakeview Greenstrip - North - Grnspc_277,trail,ab,49.6815965,-112.7871638
Lakeview Greenstrip - South - Grnspc_592,trail,ab,49.67448185,-112.7996281
Lakeview Park - Grnspc_276,trail,ab,49.67775546,-112.7943086
Lasalle Dry Pond - Grnspc_7149,trail,ab,49.68969601,-112.9096157
Lasalle Park - Grnspc_3968,trail,ab,49.68916428,-112.9128006
Laval Court - Grnspc_184,trail,ab,49.66413295,-112.8771636
Laval Park - Grnspc_185,trail,ab,49.66621382,-112.8742537
Legacy Park - Grnspc_9586,trail,ab,49.73772727,-112.8233531
Legacy Trail,trail,ab,51.12266697,-115.3885175
Legacy Trail Extension,trail,ab,51.08850946,-115.3743253
Lethbridge Indoor Soccer Centre (Facility),trail,ab,49.66532378,-112.8041573
Lethbridge Nature Reserve - Grnspc_377,trail,ab,49.69818983,-112.8656229
Lions Centennial Park - Grnspc_718,trail,ab,49.67306034,-112.806048
London Road Park - Grnspc_218,trail,ab,49.68880482,-112.8370527
Loyola Walkway - Grnspc_1401,trail,ab,49.67257126,-112.8742097
Macleod Drive W - Area 1 - Grnspc_6349,trail,ab,49.66393178,-112.8741474
Macleod Drive W - Area 2 - Grnspc_693,trail,ab,49.66362466,-112.8706141
Macleod Drive W - Area 3 - Grnspc_690,trail,ab,49.66319975,-112.875599
Macleod Walkway - Grnspc_329,trail,ab,49.66175053,-112.8784646
Mary Cameron Crescent - North Walkway - Grnspc_1921,trail,ab,49.73326837,-112.8344773
Mary Cameron Crescent - South Walkway - Grnspc_1922,trail,ab,49.73116264,-112.8341041
Mckillop Park - Grnspc_221,trail,ab,49.68459344,-112.8075836
Mcmaster Blvd W - Buffer 1 - Grnspc_3964,trail,ab,49.6762766,-112.8844774
Mcmaster Blvd W - Grnspc_6350,trail,ab,49.66378142,-112.8781085
Metis Trail - Buffer 1 - Grnspc_8763,trail,ab,49.68827688,-112.9039565
Metis Trail - Buffer 2 - Grnspc_9567,trail,ab,49.68661286,-112.9028794
Metis Trail - Buffer 3 - Grnspc_9571,trail,ab,49.67943607,-112.9027744
Metis Trail - Buffer 4 - Grnspc_9597,trail,ab,49.67890774,-112.9033067
Metis Trail - Buffer 5 - Grnspc_9596,trail,ab,49.67471743,-112.898904
Metis Trail - Buffer 6 - Grnspc_9595,trail,ab,49.67442934,-112.8981042
Metis Trail - Buffer 7 - Grnspc_9581,trail,ab,49.67173107,-112.895446
Metis Trail - Buffer 8 - Grnspc_9576,trail,ab,49.67240114,-112.8967116
Metis Trail - Buffer 9 - Grnspc_9582,trail,ab,49.66985375,-112.89433
Mike Mountain Horse School - Grnspc_162,trail,ab,49.68558397,-112.8924272
Miner's Landing Park - Grnspc_6749,trail,ab,49.66431512,-112.897875
Miners Loop,trail,ab,51.08063273,-115.3674125
Mm Drive 19 Ave S To Ccta - Grnspc_719,trail,ab,49.67390119,-112.8011406
Mm Drive 28 Ave S To 32 Ave S - Blvd 2 - Grnspc_1065,trail,ab,49.66459152,-112.7954168
Mm Drive 28 Ave S To 32 Ave S - Blvd 3 - Grnspc_2615,trail,ab,49.66292256,-112.7945889
Mm Drive 32 Ave S To 34 Ave S - Blvd 1 - Grnspc_3265,trail,ab,49.66152452,-112.7938838
Mm Drive 32 Ave S To 34 Ave S - Blvd 2 - Grnspc_1069,trail,ab,49.66029799,-112.7932703
Mm Drive 34 Ave S To 40 Ave S - Blvd 1 - Grnspc_1076,trail,ab,49.65552582,-112.7921882
Mm Drive 40 Ave S To City Limit Eastside - Grnspc_1081,trail,ab,49.647662,-112.7938536
Mm Drive And 10 Ave S - Area 1 - Grnspc_3098,trail,ab,49.68302494,-112.8047692
Mm Drive And 12 Ave S - Area 1 - Grnspc_587,trail,ab,49.68047643,-112.8034966
Mm Drive And 12 Ave S - Area 2 - Grnspc_588,trail,ab,49.67969826,-112.8030987
Mm Drive And 15 Ave S - Area 1 - Grnspc_908,trail,ab,49.67782473,-112.8021898
Mm Drive And 15 Ave S - Area 2 - Grnspc_580,trail,ab,49.6769795,-112.8017956
Mm Drive And 16 Ave S - Area 2 - Grnspc_577,trail,ab,49.67634832,-112.8014901
Mm Drive And 16 Ave S - Area 3 - Grnspc_576,trail,ab,49.67607477,-112.8013531
Mm Drive And 20 Ave S - Area 1 - Grnspc_569,trail,ab,49.67317705,-112.7998924
Mm Drive And 20 Ave S - Area 2 - Grnspc_717,trail,ab,49.67157707,-112.7990829
Mm Drive And Henderson Lake Blvd S - Area 1 - Grnspc_578,trail,ab,49.67580516,-112.8012094
Mm Drive And Henderson Lake Blvd S - Area 2 - Grnspc_575,trail,ab,49.67517435,-112.8008857
Mm Drive And Hwy 4 - Area 1 - Grnspc_739,trail,ab,49.66968839,-112.7981905
Mm Drive And Hwy 4 - Area 2 - Grnspc_1061,trail,ab,49.66861059,-112.7961476
Mm Drive And Lakeview Drive S - Area 1 - Grnspc_721,trail,ab,49.67450962,-112.8005457
Mm Drive And Lakeview Drive S - Area 3 - Grnspc_492,trail,ab,49.6740994,-112.800029
Mm Drive At 22 Ave S - Grnspc_3153,trail,ab,49.67065095,-112.7992749
Mm Drive At 32 Ave S - Blvd 2 - Grnspc_1064,trail,ab,49.66626924,-112.7963401
Mm Drive At Henderson Park - Area 1 - Grnspc_593,trail,ab,49.687201,-112.8068435
Mm Drive At Henderson Park - Area 2 - Grnspc_554,trail,ab,49.68378389,-112.7956377
Mm Drive At Scenic Drive To Fairmont Blvd S - Grnspc_1062,trail,ab,49.66855676,-112.7974152
Mm Drive At Southgate Blvd S - Blvd 2 - Grnspc_1073,trail,ab,49.65725823,-112.7922111
Mm Drive From 7 Ave S To 9 Ave S - Westside - Grnspc_664,trail,ab,49.68802518,-112.8078583
Mm Drive From 9 Ave S To 10 Ave S - Westside - Grnspc_562,trail,ab,49.68520155,-112.8064975
Mm Drive S 40 Ave S To 48 Ave S - Grnspc_1078,trail,ab,49.65263322,-112.79379
Mm Drive S At Southgate Blvd S - Blvd 1 - Grnspc_1072,trail,ab,49.65953508,-112.7925223
Mm Drive S From 48 Ave S To City Limit - Grnspc_1080,trail,ab,49.64888723,-112.795062
Mm Drive South Of 10A Ave S - Area 1 - Grnspc_585,trail,ab,49.68166793,-112.8040953
Mm Drive South Of 12 Ave S And Lane - Eastside - Grnspc_909,trail,ab,49.67888909,-112.8027082
Mohawk Walkway - Grnspc_295,trail,ab,49.68870739,-112.8883475
Moonlight Walkway - Grnspc_6748,trail,ab,49.66531911,-112.8991687
Mountain View Cemetery - Grnspc_502,trail,ab,49.67919804,-112.8267548
Mt Burke Blvd - Area 1 - Grnspc_689,trail,ab,49.66143639,-112.8760901
Mt Burke Blvd - Area 2 - Grnspc_330,trail,ab,49.65925998,-112.8746702
Mt. Blakiston Park - Grnspc_171,trail,ab,49.66194438,-112.87342
Mt. Blakiston Walkway - Grnspc_271,trail,ab,49.65996027,-112.8707663
Mt. Crandell Park - Grnspc_305,trail,ab,49.65649221,-112.8793928
Mt. Rundle Walkway - Grnspc_697,trail,ab,49.65600157,-112.8714898
Nicholas Sheran Park - Grnspc_939,trail,ab,49.67079781,-112.8812651
Nicholas Sheran School - Grnspc_150,trail,ab,49.67322011,-112.8781651
No Associated Green Space,trail,ab,49.66074318,-112.8018635
Northlander Park - Grnspc_3969,trail,ab,49.68853694,-112.9151392
Ojibwa Park - Grnspc_876,trail,ab,49.67782271,-112.8921874
Pacific Park - Grnspc_9613,trail,ab,49.68608501,-112.9231852
Pacific Walkway - Grnspc_9614,trail,ab,49.68570332,-112.9227179
Palliser Park - Grnspc_857,trail,ab,49.71419271,-112.8012063
Palm Park - Grnspc_274,trail,ab,49.67114404,-112.793091
Paradise Valley - Grnspc_1039,trail,ab,49.65612974,-112.8394933
Park Meadows Park - Grnspc_261,trail,ab,49.72006996,-112.8049357
Park Meadows School - Grnspc_251,trail,ab,49.72351642,-112.8096378
Parkside Drive S - Median 2 - Grnspc_670,trail,ab,49.68924067,-112.8054016
Parkside Drive S At Henderson Golf Club - Grnspc_678,trail,ab,49.68536022,-112.7862032
Pathway,trail,ab,53.469611,-113.2709
Pavan Park - Grnspc_3888,trail,ab,49.75580663,-112.8482892
Pedestrian Overpass Access - Grnspc_530,trail,ab,49.69846608,-112.817948
Peenaquim Park - Grnspc_757,trail,ab,49.72699028,-112.8512864
Popson Park - Grnspc_917,trail,ab,49.63661165,-112.8641816
Prairie Arbour Park - Grnspc_2487,trail,ab,49.64844464,-112.7856127
Princeton Park - Grnspc_875,trail,ab,49.67362522,-112.8955305
Princeton Walkway - Grnspc_3664,trail,ab,49.67202617,-112.8953468
Purdue Walkway - Grnspc_188,trail,ab,49.67521719,-112.8922805
Quarry Lake Dog Pond Trail,trail,ab,51.07674298,-115.3785298
Queens Park - Grnspc_304,trail,ab,49.67021022,-112.8753994
Ravine Park - Grnspc_722,trail,ab,49.67257858,-112.8149532
Redwood Park - Grnspc_225,trail,ab,49.67411465,-112.790367
Ridge Park - Grnspc_1356,trail,ab,49.65277498,-112.7848412
Ridgewood Park - Grnspc_914,trail,ab,49.68844582,-112.8789319
Rivergreen Walkway - Grnspc_177,trail,ab,49.66186691,-112.8633201
Riverland Walkway - Grnspc_1030,trail,ab,49.65764969,-112.8567945
Rivermill Walkway - Grnspc_1029,trail,ab,49.66201215,-112.8627636
Riverpark Canal - Grnspc_3973,trail,ab,49.65718303,-112.8597885
Riverstone Boulevard - Grnspc_1561,trail,ab,49.66409033,-112.8681375
Riverstone Coulees - Grnspc_4733,trail,ab,49.66561263,-112.8544971
Riverstone Dog Park - Grnspc_9566,trail,ab,49.65445242,-112.866401
Riverstone Terrace Walkway - Grnspc_281,trail,ab,49.65850299,-112.8650738
Rocky Mountain Park - Grnspc_172,trail,ab,49.65974807,-112.8785993
Rotary Brook Park - Grnspc_313,trail,ab,49.67405363,-112.8739308
Rotary Park - Grnspc_165,trail,ab,49.67233878,-112.8701858
Roundabout Pathways,trail,ab,51.08664614,-115.3282001
Royal View Memorial Cemetery - Grnspc_3930,trail,ab,49.75221584,-112.8286909
Rutgers Park - Grnspc_189,trail,ab,49.67366183,-112.8907688
Salish Park - Grnspc_263,trail,ab,49.68779792,-112.8955381
Sarcee Walkway West - Grnspc_193,trail,ab,49.68841647,-112.8962797
Scenic Dr N - East Buffer 1 - Grnspc_1147,trail,ab,49.72632705,-112.8295542
Scenic Dr N - West Buffer 1 - Grnspc_1148,trail,ab,49.72758762,-112.8289212
Scenic Dr N And Stafford Dr N - Area 1 - Grnspc_1145,trail,ab,49.72352504,-112.8327695
Scenic Dr N At Stafford Subdivision - Grnspc_1889,trail,ab,49.72073416,-112.8381142
Scenic Drive Dog Run - Grnspc_699,trail,ab,49.68194867,-112.8378745
Scenic Drive N - East Buffer 2 - Grnspc_1143,trail,ab,49.72982119,-112.8242596
Scenic Drive N And 26 Ave N - Area 1 - Grnspc_1170,trail,ab,49.72816349,-112.8259527
Scenic Drive N And 26 Ave N - Area 2 - Grnspc_1149,trail,ab,49.72739448,-112.8254505
Scenic Drive N And 5 Ave N - Area 6 - Grnspc_386,trail,ab,49.70552898,-112.8402672
Scenic Drive N And 5 Ave N - Area 7 - Grnspc_1928,trail,ab,49.70532593,-112.8452596
Scenic Drive N And 5 Ave N - Area 8 - Grnspc_613,trail,ab,49.70646472,-112.8460875
Scenic Drive N And 9 Ave N - Area 1 - Grnspc_631,trail,ab,49.71294832,-112.8425256
Scenic Drive N And 9 Ave N - Area 4 - Grnspc_852,trail,ab,49.71023694,-112.845614
Scenic Drive N And 9 Ave N - Area 5 - Grnspc_5135,trail,ab,49.71486468,-112.8432002
Scenic Drive S - Cemetery Entrance To Dog Run - Grnspc_499,trail,ab,49.6804796,-112.8324631
Scenic Drive S - Retention Pond Area 2 - Grnspc_709,trail,ab,49.66867087,-112.8082445
Scenic Drive S At 4 St S - Area 2 - Grnspc_915,trail,ab,49.68594779,-112.8444894
Scenic Drive S At Chinook Heights - Grnspc_716,trail,ab,49.66884715,-112.8161379
Scenic Drive S At The Enmax Centre - Grnspc_490,trail,ab,49.66865774,-112.8055998
Scenic Drive S At The Police Station - Area 1 - Grnspc_639,trail,ab,49.69892235,-112.8459687
Scenic Drive S From 15 St S To Scenic Hts - Grnspc_700,trail,ab,49.67419987,-112.8238489
Scenic Drive S From 20 St S To Tudor Blvd S - Grnspc_723,trail,ab,49.66865218,-112.8132776
Scenic Drive S From 28 St S To Mm Drive - Grnspc_485,trail,ab,49.66869149,-112.7999606
Scenic Drive S From Chinook Heights To 15 St S - Grnspc_715,trail,ab,49.67305473,-112.8180326
Scenic Drive S From The Dog Run To 10 Ave S - Grnspc_703,trail,ab,49.68228381,-112.8354942
Scenic Drive S From The Enmax Centre To 28 St S - Grnspc_489,trail,ab,49.66865522,-112.8029327
Scenic Drive S From Tudor Cres S To Retention Pond - Grnspc_705,trail,ab,49.66864865,-112.8108974
Scenic Heights Park - Grnspc_197,trail,ab,49.67560037,-112.8271023
Senator Joyce Fairbairn Middle School - Grnspc_9615,trail,ab,49.65469075,-112.8794855
Sequoia Park - Grnspc_275,trail,ab,49.67028339,-112.7868497
Sheridan Park - Grnspc_169,trail,ab,49.66365948,-112.8842994
Sherwood Walkway - Grnspc_309,trail,ab,49.68660451,-112.8793982
Silkstone Walkway - Grnspc_1054,trail,ab,49.67067588,-112.9039312
Sixmile Coulee Environmental Reserve - Grnspc_1360,trail,ab,49.65022168,-112.7895699
Sixmile Ridge Walkway - South - Grnspc_2491,trail,ab,49.65188275,-112.7844042
South Lethbridge Reservoir - Grnspc_230,trail,ab,49.69530606,-112.8101321
Southgate Blvd S - Blvd 1 - Grnspc_1708,trail,ab,49.6546839,-112.7913145
Southgate Blvd S - Blvd 2 - Grnspc_1711,trail,ab,49.65469532,-112.7890304
Southgate Blvd S - Blvd 3 - Grnspc_1726,trail,ab,49.65487989,-112.7869817
Southgate Park - Grnspc_1357,trail,ab,49.65486427,-112.7842564
Southridge Park - Grnspc_927,trail,ab,49.65100113,-112.7989944
Squamish Park - Grnspc_268,trail,ab,49.68886013,-112.8998947
St Edward Park - Grnspc_286,trail,ab,49.72222104,-112.8289898
St Francis Park - Grnspc_243,trail,ab,49.72092108,-112.8311308
St Patrick School - Grnspc_183,trail,ab,49.66128768,-112.8653858
St Teresa School - Grnspc_1920,trail,ab,49.73587571,-112.8296804
Stafford Corner - Grnspc_283,trail,ab,49.71994386,-112.8322802
Stafford Coulee - Grnspc_4735,trail,ab,49.71777861,-112.8405239
Stafford Dr N - Area 2 - Grnspc_1915,trail,ab,49.72597711,-112.8330578
Stafford Dr N - Area 4 - Grnspc_1899,trail,ab,49.72996388,-112.8345779
Stafford Dr N At St David Rd N - Grnspc_9585,trail,ab,49.7220512,-112.832277
Stafford Park - Grnspc_279,trail,ab,49.72211015,-112.8357289
Staffordville Park - Grnspc_239,trail,ab,49.71138006,-112.8323249
Stonecrest Park - Grnspc_50,trail,ab,49.66412861,-112.8545092
Stonecrest Point - Grnspc_3971,trail,ab,49.66522986,-112.8597102
Stonehaven Point - Grnspc_1428,trail,ab,49.66162928,-112.856234
Stoney Walkway - Grnspc_311,trail,ab,49.69090665,-112.8914439
Sunburst Park - Grnspc_986,trail,ab,49.65559204,-112.8713628
Sunburst Walkway - Grnspc_987,trail,ab,49.65533585,-112.8760551
Sundial Park - Grnspc_3925,trail,ab,49.64955109,-112.8775982
Sunridge Park - Grnspc_930,trail,ab,49.65489252,-112.8714717
Sunridge Road Walkway - Grnspc_7562,trail,ab,49.65274209,-112.868404
Tartan Park - Grnspc_941,trail,ab,49.69546406,-112.9033521
Ted Petrunia Park - Grnspc_245,trail,ab,49.7203915,-112.8202366
Transcanada Trail,trail,ab,51.08851587,-115.3737774
Transit - North Side Transfer Terminal (Facility),trail,ab,49.72838167,-112.8245552
Trinity Park - Grnspc_166,trail,ab,49.67122387,-112.8725865
Tudor Entrance Park - Grnspc_270,trail,ab,49.66835839,-112.813763
Tudor Park - Grnspc_180,trail,ab,49.66706314,-112.8131796
University Drive - Columbia Blvd To Rotary Brook Park - Grnspc_686,trail,ab,49.6764995,-112.8702535
University Drive - Macleod Drive To Rocky Mountain Blvd - Grnspc_692,trail,ab,49.66364654,-112.8701243
University Drive - Mcgill Blvd To Mcleod Drive - Grnspc_687,trail,ab,49.66700153,-112.8691318
